year,state,station,name,lat,lon,elev,avg_temp,avg_dew,avg_slp,avg_stp,avg_co2
1975,NH,726160,BERLIN MUNICIPAL AIRPORT,44.583,-71.179,+0353.0,48.552121212121207,40.676515151515147,5781.6575757575747,2755.7356060606062,329.85166666666669
1975,NY,725060,OTIS ANGB AIRPORT,41.65,-70.061,+0047.5,54.339075268817204,45.689440860215058,9999.9,1012.6343655913978,331.20300000000003
1975,OR,726885,MEACHAM,45.511,-118.425,+1134.8,40.082917735608305,3928.3748064282372,9102.0103225806452,9087.61322580645,331.521
1975,AK,700265,BARROW W POST-W ROGERS ARPT,71.333,-156.633,+0004.0,15.0,12.25,9999.9,9999.9,328.34
1975,AK,700866,CHALLENGE ISLAND,70.233,-146.5,-0999.0,4.5260755682066796,5488.1165309603257,9813.7558620689651,9999.9,332.224
1975,AK,701160,WALES,65.617,-168.05,+0005.0,14.700000000000001,10.966666666666665,1002.0166666666667,9999.9,331.65
1975,AK,701620,UMIAT,69.367,-152.133,+0085.0,-12.867118298368297,286.80541958041943,9999.9,9999.9,329.53
1975,AK,701745,CHANDALAR LAKE AIRPORT,67.511,-148.483,+0585.0,-10.939230769230772,748.59846153846138,9999.9,9999.9,330.125
1975,AK,702460,MINCHUMINA,63.9,-152.267,+0214.0,28.33787867996201,3323.198856328856,9999.9,9999.9,331.28999999999996
1975,AK,702490,PUNTILLA LAKE,62.1,-152.735,+0566.3,27.595451631701632,167.8182977855478,9999.9,9999.9,331.521
1975,AK,702550,SKWENTNA AIRPORT,61.977,-151.183,+0045.7,33.186844007707975,3233.64816689132,9999.9,9999.9,332.17249999999996
1975,AK,702600,NENANA/MUN.                  ,64.55,-149.072,+0110.0,8.2347069597069584,2229.9064542124543,9999.9,9999.9,329.51
1975,AK,702675,PAXSON AIRPORT,63.033,-145.498,+0823.0,24.320588235294121,151.5392959001783,9999.9,9999.9,331.40818181818184
1975,AK,702680,GLENNALLEN  AK,62.1,-145.967,+0573.0,41.549042658730158,27.282172619047625,9999.9,9999.9,331.15375
1975,AK,702719,SNOWSHOE LAKE,62.033,-142.667,+0735.0,25.9434350132626,136.83779840848808,9999.9,9999.9,328.79666666666668
1975,AK,702735,MERRILL FLD,61.217,-149.833,+0042.1,36.535714285714285,5024.0499999999993,9999.9,9999.9,329.65999999999997
1975,AK,702756,VALDEZ PIONEER FIELD AIRPORT,61.133,-146.244,+0036.0,5.2,2.1,9999.9,9999.9,333.6
1975,AK,702757,WHITTIER AIRPORT,60.783,-148.683,+0011.9,34.678333333333335,28.328333333333333,9999.9,9999.9,331.232
1975,AK,703330,PORT HEIDEN AIRPORT,56.959,-158.617,+0029.0,38.746683413834745,146.90557384898472,9999.9,9999.9,330.83500000000004
1975,AK,703570,SITKINAK(USCG)               ,56.55,-154.133,+0017.0,39.248593435075179,111.62679681681101,1237.7385746080042,9999.9,331.20300000000003
1975,AK,703865,LEVEL ISLAND,56.467,-133.1,+0030.0,43.729147113916859,340.05719073621958,9999.9,9999.9,331.18818181818182
1975,AK,703885,CAPE POLE SEAPLANE,55.967,-133.8,+0001.0,45.339371693121691,94.753257642563213,9999.9,9999.9,331.11
1975,AK,704090,ATTU,52.833,173.183,+0021.0,36.787142857142861,35.998571428571431,1007.2014285714284,9999.9,331.40142857142854
1975,AK,704898,ROBERT (BOB) CURTIS MEMORIAL,66.818,-161.022,+0017.1,35.818245528980832,31.808686669539611,9999.9,9999.9,331.521
1975,AZ,723785,PAGE MUNI (AMOS)  &          ,36.933,-111.45,+1314.0,63.778298861480067,30.722747628083496,9999.9,9999.9,330.83500000000004
1975,AZ,723786,KINGMAN (AMOS)    &          ,35.25,-113.933,+1033.0,54.330001747734677,24.533069963163129,9999.9,9999.9,331.40714285714284
1975,CA,722885,SANTA MONICA MUNI AIRPORT,34.017,-118.45,+0053.0,1.4,9999.9,9999.9,9999.9,328.34
1975,CA,722890,MOUNT WILSON,34.233,-118.067,+1739.2,19.9,9999.9,9999.9,9999.9,331.4
1975,CA,725846,TRUCKEE-TAHOE AIRPORT,39.32,-120.133,+1798.3,41.5790192138779,99.454658322353993,9999.9,9999.9,329.82500000000005
1975,CO,725710,YAMPA VALLEY AIRPORT,40.481,-107.218,+2011.7,35.781703038649646,22.705733928350725,1015.9777867383514,9999.9,332.45333333333332
1975,CO,725715,HAYDEN/YAMPA (AWOS)          ,40.483,-107.217,+2012.3,39.284603920194755,106.83141745941917,9999.9,9999.9,330.833
1975,CT,725089,NEW HAVEN COAST GUARD STATION,41.27,-72.9,+0003.0,46.827152014652015,9999.9,1019.8680402930404,9999.9,329.53
1975,FL,722025,FORT LAUDERDALE HOL,26.072,-80.154,+0003.4,78.247429622861375,68.781403246994017,9999.9,9999.9,331.358
1975,FL,722035,CLEWISTON,26.75,-80.95,+0006.0,76.650393625192024,64.821025345622118,1017.1936699948797,9999.9,332.45333333333332
1975,FL,722045,VERO BEACH MUNI,27.653,-80.243,+0008.5,73.6687027983704,65.174698223468909,1018.7690474854738,9999.9,330.626
1975,FL,722117,EGMONT KEY COAST GUARD STATIO,27.6,-82.77,+0001.0,73.15,9999.9,1017.3,9999.9,328.91499999999996
1975,FL,722118,VENICE MUNICIPAL AIRPORT,27.072,-82.44,+0005.8,68.9,9999.9,1019.2,9999.9,329.49
1975,HI,911976,WAIMEA KOHALA,20.001,-155.668,+0814.1,66.9203125,1420.1761904761904,9999.9,9999.9,331.72749999999996
1975,HI,911977,BRADSHAW ARMY AIRFIELD,19.76,-155.55,+1887.0,58.107898479152425,43.532093996354519,9999.9,9999.9,331.301
1975,IL,725315,UNIVERSI OF IL WILLARD APT,40.04,-88.267,+0230.0,46.1316696535245,37.300779825908855,9999.9,9999.9,331.18699999999995
1975,IL,725325,BRADFORD/RINKENBERG,41.233,-89.617,+0247.0,53.897221269460978,1920.6974990476913,9999.9,9999.9,331.358
1975,IN,724375,MONROE COUNTY AIRPORT,39.133,-86.617,+0258.0,58.440119047619049,48.951595238095237,9999.9,9999.9,330.883
1975,KY,724237,OWENSBORO-DAVIESS COUNTY AIRP,37.75,-87.167,+0124.0,59.365210149811993,664.58584519911858,9999.9,9999.9,331.93777777777774
1975,LA,722407,CALCASIEU COAST GUARD STATION,29.78,-93.35,+0001.0,65.4,9999.9,1021.6,9999.9,329.49
1975,MA,725067,BRNSBL MUNI-BMAN/POL FD AP,41.669,-70.267,+0017.0,60.939015993494174,180.27590765338394,9999.9,9999.9,330.38714285714292
1975,MA,725098,NORWOOD MEMORIAL AIRPORT,42.191,-71.167,+0015.2,15.8,9999.9,9999.9,9999.9,330.40999999999997
1975,MA,744916,PITTSFIELD MUNI,42.433,-73.3,+0364.0,70.2,64.2,9999.9,9999.9,333.6
1975,MD,691174,ABERDEEN PVNG GRND,39.467,-76.167,+0018.0,78.91,1062.3899999999999,9999.9,9999.9,333.785
1975,MD,724065,TIPTON AIRPORT,39.085,-76.759,+0046.0,63.468080523943982,49.260005861213308,2841.0345803670748,9999.9,331.20300000000003
1975,ME,726191,GREENVILLE (AMOS) &          ,45.467,-69.583,+0427.0,29.501367541416805,1441.177962259233,3580.4059592358012,9999.9,331.46
1975,MI,726340,GAYLORD,44.9,-84.717,+0448.4,31.094178571428571,23.47558525345622,1016.2533594470046,9999.9,331.78749999999997
1975,MI,727440,HOUGHTON COUNTY MEMO ARPT,47.169,-88.489,+0333.8,27.507485407066053,21.84911059907834,1016.0416850998464,9999.9,332.224
1975,MS,722357,NATCHEZ/HARDY(AWOS)          ,31.617,-91.283,+0083.0,69.759999999999991,62.62,9999.9,9999.9,332.44666666666666
1975,MS,723305,OXFORD UNIVERSITY,34.383,-89.533,+0137.0,44.0,39.8,9999.9,9999.9,330.4
1975,MT,726765,WEST YELLOWSTONE  &          ,44.683,-111.117,+2025.0,57.047101408972928,38.243227660363367,9999.9,9999.9,331.03000000000003
1975,ND,727577,GRAND FORKS NEXRAD,47.533,-97.333,+0329.0,41.91776556240324,32.32399277319567,1922.2781203400284,9999.9,331.69333333333333
1975,NH,726165,DILLANT-HOPKINS AIRPORT,42.9,-72.267,+0149.0,47.749430014430011,949.49849927849937,9999.9,9999.9,331.30363636363637
1975,NM,723620,SOCORRO MUNICIPAL AP,34.067,-106.9,+1485.9,32.8,27.4,9999.9,9999.9,331.4
1975,NM,723655,MORIARTY,34.98,-106.05,+1890.0,36.760519480519484,34.819870129870132,9999.9,9999.9,330.85142857142858
1975,NM,723659,TAOS,36.383,-105.6,+2126.0,36.8,24.7,9999.9,9999.9,329.49
1975,NM,723671,CLAYTON MUNICIPAL AIRPARK,36.449,-103.154,+1515.5,33.87444168734492,19.979032258064514,9999.9,9999.9,330.125
1975,NM,723678,RATON MUNICIPAL CREWS FIELD A,36.741,-104.502,+1935.2,48.519117535903248,85.729914965986367,9999.9,9999.9,332.37428571428569
1975,NV,724770,EUREKA (RAMOS)               ,39.601,-116.0,+1811.0,52.885397986945975,155.41398323683543,1131.3023426435966,9999.9,332.085
1975,NY,725155,ITHACA TOMPKINS RGNL,42.491,-76.467,+0335.0,37.977341013824883,28.790427035330261,9999.9,9999.9,332.224
1975,OK,723526,CLINTON-SHERMAN AIRPORT,35.357,-99.2,+0586.0,60.566481481481475,9999.9,9999.9,9999.9,331.93777777777774
1975,OK,723545,STILLWATER RGNL,36.162,-97.083,+0305.0,33.0,31.8,9999.9,9999.9,331.4
1975,PR,785140,RAFAEL HERNANDEZ AIRPORT,18.498,-67.129,+0066.5,79.406614118229882,1487.8719254194079,1018.1064282515514,9999.9,332.42571428571432
1975,TX,722505,VALLEY INTL,26.228,-97.65,+0011.0,77.92969779314889,1305.5539429622308,9999.9,9999.9,330.72
1975,TX,722525,LAREDO INTL ARPT,27.617,-99.461,+0164.0,77.993641975308634,63.107604938271606,9999.9,9999.9,332.20666666666665
1975,TX,722587,COX FLD,33.633,-95.45,+0167.0,63.393531474935919,143.30765664878948,9999.9,9999.9,330.93
1975,TX,722666,BROWNWOOD REGIONAL AIRPORT,31.8,-98.95,+0423.0,73.234125656951733,60.9354634495939,9999.9,9999.9,331.35
1975,UT,724720,BLANDING,37.617,-109.467,+1840.0,49.383631965920621,28.501373898857906,1013.4418108388644,9999.9,332.085
1975,UT,724776,CANYONLANDS FLD,38.75,-109.75,+1389.9,27.601111111111109,19.398888888888887,9999.9,9999.9,330.206
1975,WA,727827,MOSES LAKE/GRANT CO,47.208,-119.317,+0364.5,53.701811059907826,3021.5252565284177,9999.9,9999.9,331.451
1975,WA,727870,DEER PARK AIRPORT,47.974,-117.427,+0674.0,44.590990259740259,91.721915584415584,1142.869487898465,9999.9,331.08454545454549
1975,AK,700260,W POST-WILL ROGERS MEMORIAL A,71.283,-156.782,+0009.5,5.8498591909882229,29.274679979518691,1015.8324820788531,1015.3290642601128,331.1525
1975,AK,700300,WAINWRIGHT AIRPORT,70.639,-159.85,+0027.0,7.40339431501394,834.098835303237,1187.6741668800137,1208.9313463617225,331.1525
1975,AK,700450,LONELY (DEW)                 ,70.917,-153.233,+0012.0,6.3191955407403118,1765.1227923281758,1041.0228398998727,1039.9229007298472,331.1525
1975,AK,700630,OLIKTOK POW 2                ,70.5,-149.88,+0005.0,6.8630097680097695,860.61857290558919,1096.5486841742486,1095.7922367954627,331.1525
1975,AK,700638,FALSE PASS,54.85,-163.417,+0006.0,6.5581831423407486,976.88362173575217,1853.7921225742859,1853.0837707515914,331.1525
1975,AK,700860,BARTER ISLAND AIRPORT,70.134,-143.577,+0015.0,6.79414746543779,3.1802950588837677,1015.6316698668716,1013.6509146185356,331.1525
1975,AK,701040,CAPE LISBURNE LRRS AIRPORT,68.883,-166.133,+0004.9,15.029903032756662,36.625685830583393,1096.6198082401058,8425.0781448760736,331.1525
1975,AK,701170,TIN CITY LRRS AIRPORT,65.567,-167.917,+0083.0,18.374993768796607,14.443413424282909,1092.8342670280322,9038.3892611303381,331.1525
1975,AK,701190,PORT CLARENCE CGS,65.254,-166.859,+0003.0,19.693103599278746,206.84339134591556,1153.6355564184028,9325.3933333333334,331.1525
1975,AK,701210,POINT LAY LRRS AIRPORT,69.817,-162.917,+0007.6,7.9204482277976886,979.87017423337306,1045.0829888490641,1068.2456091198724,331.1525
1975,AK,701330,RALPH WIEN MEMORIAL AIRPORT,66.867,-162.633,+0009.1,18.397467997951871,39.913145161290323,1011.9196735791091,1011.3697964669739,331.1525
1975,AK,701730,INDIAN MOUNTAIN LRRS ARPT,66.0,-153.7,+0389.0,22.796389744729105,319.85621598954725,1037.1252543267749,8441.5331839904411,331.1525
1975,AK,701740,BETTLES AIRPORT,66.918,-151.519,+0193.2,21.263369815668206,201.06566308243725,1013.0092255504353,987.769093701997,331.1525
1975,AK,701780,RALPH M CALHOUN MEML ARPT,65.175,-152.107,+0067.7,26.635458578160193,15.566495874197487,1011.8448213256278,2503.1111343405696,331.1525
1975,AK,702000,NOME AIRPORT,64.511,-165.44,+0004.0,23.499120583717364,17.627306067588329,1010.3676350486431,1009.528922171019,331.1525
1975,AK,702070,UNALAKLEET AIRPORT,63.883,-160.8,+0006.0,26.436108354011584,18.374103942652333,1011.0521039046234,1010.2589763079586,331.1525
1975,AK,702120,CAPE ROMANZOFF AFS,61.783,-166.033,+0146.0,26.890529152781195,22.15328334468165,1283.284688778054,6919.5783146595295,331.1525
1975,AK,702190,BETHEL AIRPORT,60.785,-161.829,+0031.1,26.061429851510496,19.923879288274449,1009.6317274705581,1003.7852182539682,331.1525
1975,AK,702220,GALENA AIRPORT,64.737,-156.933,+0049.0,22.647813620071684,390.92375896057331,1010.8517761136711,3979.0327476958523,331.1525
1975,AK,702310,MCGRATH AIRPORT,62.957,-155.61,+0101.5,22.172108934971838,67.788546466973884,1010.8768516385048,997.73292690732217,331.1525
1975,AK,702315,TATALINA LRRS AIRPORT,62.894,-155.967,+0294.0,25.171694423656788,184.24227877558522,1011.5179337617778,4626.6111178397468,331.1525
1975,AK,702350,SPARREVOHN LRRS AIRPORT,61.1,-155.567,+0484.0,26.994967144563919,127.10846560846562,1120.1545177646924,8442.3379032258053,331.1525
1975,AK,702510,TALKEETNA AIRPORT,62.32,-150.095,+0106.7,31.76303635432668,22.481682667690734,1009.5358474142345,996.036386968766,331.1525
1975,AK,702590,KENAI MUNICIPAL AIRPORT,60.58,-151.239,+0027.7,28.973483102918589,131.13924923195091,1008.8593823604712,1005.4742505120328,331.1525
1975,AK,702610,FAIRBANKS INTERNATIONAL,64.804,-147.876,+0131.7,26.139847670250891,67.4066365847414,1011.5277707373272,994.00231438812091,331.1525
1975,AK,702640,SUMMIT,63.331,-149.127,+0734.3,24.46568896853843,178.54470330545598,1011.7154858622064,921.95417363600154,331.1525
1975,AK,702650,FAIRBANKS/EIELSON A,64.683,-147.067,+0167.0,22.692361111111111,552.85402329749115,1010.850736687148,7723.2417626728111,331.1525
1975,AK,702670,ALLEN ARMY AIRFIELD,63.994,-145.721,+0389.2,25.429719022017409,475.81695084485403,1011.7842287506401,987.38502304147482,331.1525
1975,AK,702710,GULKANA AIRPORT,62.159,-145.459,+0476.1,25.515782130056319,13.969304915514595,1011.7473924731183,952.00546786994369,331.1525
1975,AK,702720,ELMENDORF AFB AIRPORT,61.253,-149.794,+0064.6,32.386228238607266,23.31253200204813,1008.8955869175627,9975.7446236559153,331.1525
1975,AK,702730,TED STEVENS ANCHORAGE INTL,61.169,-150.028,+0036.6,34.147760496671786,24.42532898105479,1009.0705261136713,1004.103048515105,331.1525
1975,AK,702750,NATIONAL WEATHER SERVICE OFFI,61.13,-146.352,+0029.0,37.366641065028169,56.520430491551444,1010.072932155658,1009.0661927803379,331.1525
1975,AK,703050,CAPE NEWENHAM AFS,58.65,-162.067,+0164.9,30.8091043297328,25.879142888380933,1706.4529815858346,6946.6970790788437,331.1525
1975,AK,703080,ST PAUL ISLAND AIRPORT,57.155,-170.222,+0010.7,31.816828597030209,82.3988114439324,1008.6113447260625,1007.6652649769585,331.1525
1975,AK,703160,COLD BAY AIRPORT,55.221,-162.732,+0023.8,36.577440476190489,32.397758576548895,1007.5605190732206,1004.0136840757809,331.1525
1975,AK,703260,KING SALMON AIRPORT,58.683,-156.656,+0020.4,29.230811571940606,76.598221326164889,1007.9280030721966,1005.7715719406042,331.1525
1975,AK,703410,HOMER AIRPORT,59.642,-151.491,+0019.5,35.277385432667685,55.460628520225285,1007.5362339989758,1004.8621947004608,331.1525
1975,AK,703500,KODIAK AIRPORT,57.751,-152.486,+0024.4,36.507904505888376,59.77319828469021,1007.3045903737839,1002.955121607783,331.1525
1975,AK,703610,YAKUTAT AIRPORT,59.512,-139.671,+0010.1,37.523269329237067,32.160317460317465,1009.9595590117767,1008.7960221454173,331.1525
1975,AK,703810,JUNEAU INTERNATIONAL,58.357,-134.564,+0004.9,39.088634792626735,31.96641833077317,1012.1159184587813,1011.2613856886841,331.1525
1975,AK,703980,ANNETTE ISLAND AIRPORT,55.039,-131.579,+0033.2,42.77487903225807,35.917992191500254,1013.4736507936509,1009.4050748847926,331.1525
1975,AK,704140,EARECKSON AS,52.717,174.1,+0037.2,38.008836405529955,32.938618791602664,1007.2657827700973,9975.7295698924718,331.1525
1975,AK,704540,ADAK NAS,51.883,-176.65,+0005.2,39.050711725550435,33.889182027649774,1007.4380043522785,1006.9463172043011,331.1525
1975,AL,722230,MOBILE REGIONAL AIRPORT,30.688,-88.246,+0065.5,67.518045954941115,58.456616743471592,1017.6281637224782,1009.7429486687148,331.1525
1975,AL,722260,MONTGOMERY  RGNL (DANNELLY FD,32.3,-86.408,+0061.6,64.839102662570411,55.997284946236562,1018.4832635688683,1011.1758218125959,331.1525
1975,AL,722269,CAIRNS ARMY AIRFIELD (FORT RU,31.267,-85.7,+0092.0,66.360999103942646,56.695636200716848,1018.0314861751152,9925.7337544802849,331.1525
1975,AL,722280,BIRMINGHAM INTERNATIONAL AIRP,33.566,-86.745,+0187.5,62.410175371223758,53.159052099334346,1018.3918862007168,995.85286162314389,331.1525
1975,AL,723230,HUNTSVILLE INTL/C.T.JONES FIE,34.644,-86.787,+0190.2,60.436342165898616,51.603680875576039,1018.6229825908856,995.48599590373783,331.1525
1975,AR,723400,NORTH LITTLE ROCK AIRPORT,34.835,-92.25,+0173.0,60.553367678916061,50.8707832624365,1017.6133016759228,1132.9022826716296,331.1525
1975,AR,723401,LITTLE ROCK ADAMS FIELD,34.727,-92.239,+0078.3,60.829002816180235,51.183241807475682,1017.5219610855095,1008.0459581413211,331.1525
1975,AR,723405,LITTLE ROCK AFB AIRPORT,34.917,-92.15,+0095.0,60.629546850998466,50.743799283154125,1017.4613876088069,9950.7319892473115,331.1525
1975,AR,723440,FORT SMITH REGIONAL AIRPORT,35.333,-94.363,+0136.9,59.027894905273925,48.146007424475165,1016.9456394009217,1000.2446460573477,331.1525
1975,AR,723445,DRAKE FLD,36.01,-94.167,+0381.3,56.937972350230417,48.202942908346131,1016.9271556579621,972.0054819508448,331.1525
1975,AZ,722726,NOGALES AUTOMATIC METEOROLOGI,33.237,-107.268,+1480.7,57.64582501280082,29.148483742959552,1013.7763632872504,852.47091461853574,331.1525
1975,AZ,722730,SIERRA VISTA MUNICIPAL-LIBBY,31.588,-110.333,+1438.4,64.495224014336927,32.118052355350741,1060.6336008704557,9975.3201612903213,331.1525
1975,AZ,722740,TUCSON INTERNATIONAL AIRPORT,32.131,-110.955,+0776.9,66.458689196108537,33.8174539170507,1012.3215322580645,925.16124551971325,331.1525
1975,AZ,722745,DAVIS-MONTHAN AFB AIRPORT,32.167,-110.883,+0824.2,67.194886072708641,33.3887224782386,1012.2800896057348,924.56109767025077,331.1525
1975,AZ,722780,PHOENIX SKY HARBOR INTL AIRPO,33.428,-112.004,+0337.4,71.502258064516127,36.794078981054788,1012.7068573988735,974.11461469534049,331.1525
1975,AZ,722785,LUKE AFB AIRPORT,33.55,-112.367,+0331.0,70.191555939580127,36.343528545826928,1012.8084344598055,9975.6271505376353,331.1525
1975,AZ,722786,WILLIAMS GATEWAY AIRPORT,33.3,-111.65,+0421.2,67.923293650793639,34.585146569380441,1087.1794425243218,7716.7863844086014,331.1525
1975,AZ,722800,YUMA MARINE CORPS AIR STATION,32.667,-114.6,+0063.0,72.002122375832059,39.628078597030211,1012.8137736815156,1005.5728341013825,331.1525
1975,AZ,723721,PRESCOTT MUNICIPAL AP,34.652,-112.421,+1539.8,53.966699308755757,27.703879288274447,1015.3524526369687,846.52195660522261,331.1525
1975,AZ,723740,WINSLOW-LINDBERGH REGIONAL AI,35.028,-110.721,+1489.3,52.249174347158217,27.729637736815157,1016.1946409370198,851.77313300051219,331.1525
1975,CA,722860,RIVERSIDE/MARCH AFB,33.9,-117.25,+0468.2,59.78479006656427,42.084839349718372,1015.6179755504353,9678.3296953405,331.1525
1975,CA,722866,SAN BERNARDINO INTL,34.095,-117.235,+0353.3,60.559182667690727,42.009557091653875,1015.5809485407067,7742.9739247311827,331.1525
1975,CA,722900,SAN DIEGO INTERNATIONAL AIRPO,32.734,-117.183,+0004.6,61.802165898617517,49.66814196108551,1016.0784075780849,1015.0697574244753,331.1525
1975,CA,722901,SAN DIEGO/MONTGOMER,32.817,-117.133,+0129.0,59.925673978715764,49.693242163818368,1046.9985342668765,1032.1472430382032,331.1525
1975,CA,722906,NORTH ISLAND NAS,32.7,-117.2,+0007.9,59.670168330773166,48.719067460317461,1015.8839656938045,1014.2596089349718,331.1525
1975,CA,722909,NAVAL AUXILIARY LANDING FD,32.567,-117.117,+0007.3,60.83052547363031,50.798155401945728,1016.4149596774193,1918.1050108806965,331.1525
1975,CA,722910,SAN NICOLAS ISLAND NAVAL OUTL,33.25,-119.45,+0174.0,59.906506656426004,47.934192908346134,1015.8544207629288,5251.6064221710185,331.1525
1975,CA,722925,SAN CLEMENTE ISLAND,33.023,-118.583,+0056.0,57.9520942140297,51.2249366359447,1016.0200876856118,1010.0292402713773,331.1525
1975,CA,722926,MARINE CORPS AIR STATION,33.3,-117.35,+0022.9,63.883941986058687,88.27110042893797,1049.6372193246621,5133.7421466214937,331.1525
1975,CA,722950,LOS ANGELES INTERNATIONAL AIR,33.938,-118.389,+0029.6,60.57111239119304,50.612475678443424,1015.7184856630827,1012.0946370967741,331.1525
1975,CA,722970,LONG BEACH / DAUGHERTY FIELD,33.812,-118.146,+0009.5,62.363026753712234,50.554302995391716,1015.9000896057348,1014.5505875576036,331.1525
1975,CA,723810,EDWARDS AIR FORCE BASE,34.933,-117.867,+0705.0,62.634863031233991,31.786676267281109,1014.1956400409626,9707.4034946236552,331.1525
1975,CA,723815,BARSTOW-DAGGETT AIRPORT,34.854,-116.786,+0584.3,67.262425115207378,34.32120327700973,1013.6589516129031,946.60993663594468,331.1525
1975,CA,723816,GENERAL WILLIAM J. FOX AIRFIE,34.741,-118.212,+0712.6,59.282043010752687,33.368305171530984,1015.1008832565284,6952.97103046595,331.1525
1975,CA,723825,SOUTHERN CALIFORNIA LOGISTICS,34.6,-117.383,+0879.4,60.470561315924215,30.604089221710186,1014.2103328213007,9950.1955824372762,331.1525
1975,CA,723830,SANDBERG,34.744,-118.724,+1374.7,49.872558883768562,542.42189196108541,9575.50811827957,2262.804498207885,331.1525
1975,CA,723840,MEADOWS FIELD AIRPORT,35.434,-119.054,+0149.1,65.4666743471582,44.490949820788529,1015.9329697900665,998.383922171019,331.1525
1975,CA,723890,FRESNO YOSEMITE INTERNATIONAL,36.78,-119.719,+0101.5,60.274691500256019,45.019226190476196,1016.2787583205326,1004.4430709165387,331.1525
1975,CA,723910,POINT MUGU,34.117,-119.117,+0004.0,57.982927547363033,48.304103302611374,1015.5349532770099,1015.283255888377,331.1525
1975,CA,723925,SANTA BARBARA MUNICIPAL AIRPO,34.426,-119.843,+0002.7,57.073920890937011,46.557339989759335,1016.17003328213,1015.491915642601,331.1525
1975,CA,723930,VANDENBERG AFB,34.75,-120.567,+0121.0,56.945155097357066,46.611966479056242,1017.1799704619831,1003.4753874524649,331.1525
1975,CA,723940,SANTA MARIA PUB/CAPT G A HANC,34.899,-120.449,+0073.8,56.511971326164868,45.360488351254482,1017.0540450588837,1008.355702124936,331.1525
1975,CA,724800,BISHOP AIRPORT,37.371,-118.358,+1250.3,58.741918202764971,25.810093445980545,1014.0127022529442,873.51131400409622,331.1525
1975,CA,724810,CASTLE AFB,37.383,-120.567,+0058.2,59.399332437275987,44.410161930363529,1015.6955561955964,9975.7142473118274,331.1525
1975,CA,724830,SACRAMENTO EXECUTIVE AIRPORT,38.507,-121.495,+0004.6,59.901546338965687,44.532257424475169,1016.32484703021,1015.4375736047107,331.1525
1975,CA,724835,MATHER FIELD,38.567,-121.3,+0029.3,60.199875192012286,46.351463773681516,1015.5917031490014,9975.722849462365,331.1525
1975,CA,724836,SACRAMENTO MCCLELLAN AFB,38.668,-121.4,+0023.5,60.648801203277017,44.551353686635949,1016.530548515105,9975.7271505376339,331.1525
1975,CA,724837,BEALE AIR FORCE BASE,39.133,-121.433,+0034.4,62.044859190988234,45.7513133640553,1015.9511328725039,9951.552956989246,331.1525
1975,CA,724920,STOCKTON METROPOLITAN AIRPORT,37.889,-121.226,+0007.9,58.955519713261651,45.490663082437273,1016.6734626216079,1015.6617197900666,331.1525
1975,CA,724930,OAKLAND/METROP. OAK,37.75,-122.217,+0004.0,55.874751024065546,47.575119047619054,1017.8073291090631,1017.5886661546339,331.1525
1975,CA,724940,SAN FRANCISCO INTERNATIONAL A,37.62,-122.365,+0002.4,54.277759216589857,44.725170250896056,1017.5789631336407,1016.8761821556581,331.1525
1975,CA,725845,BLUE CANYON - NYACK ARPT,39.277,-120.71,+1608.1,49.229387480798778,243.25079685099848,7456.5901081669235,839.39699692780346,331.1525
1975,CA,725910,RED BLUFF MUNICIPAL ARPT,40.152,-122.254,+0107.6,60.625857014848947,42.181927803379423,1016.2653379416282,1003.572810419867,331.1525
1975,CA,725940,WOODLEY ISLAND (NEW 10/94)   ,40.81,-124.16,+0018.0,51.203343564999358,112.25846765694411,1018.9860926739734,1016.6273629142148,331.1525
1975,CA,725945,ARCATA AIRPORT,40.978,-124.109,+0061.0,50.350120967741937,46.6289964157706,1018.7386911162314,1035.3239938556067,331.1525
1975,CA,745060,ALAMEDA(USN)                 ,37.733,-122.317,+0004.0,55.971362007168459,46.054759344598061,1017.4384101382489,1041.3755568356378,331.1525
1975,CA,745090,MOUNTAIN VIEW /SUNN,37.417,-122.048,+0012.0,56.30067140296979,46.523678315412184,1017.2831221198156,1016.0343356374807,331.1525
1975,CA,745160,TRAVIS AIR FORCE BASE,38.267,-121.933,+0022.0,57.570931899641565,44.622823860727074,1016.2407962109576,9926.63190860215,331.1525
1975,CA,746120,CHINA LAKE,35.688,-117.693,+0679.7,67.72789362519201,28.617238863287252,1013.2376958525346,1492.4257277265745,331.1525
1975,CA,747020,NAVAL AIR STATION,36.333,-119.95,+0070.7,62.153849846390173,44.622983870967744,1015.9893983614951,1032.5282418074758,331.1525
1975,CA,747188,BLYTHE AIRPORT,33.619,-114.714,+0120.4,71.906040706605211,33.0005069124424,1012.783717357911,998.96812275985667,331.1525
1975,CO,724620,SAN LUIS VALLEY REGIONAL AIRP,37.439,-105.861,+2296.1,39.4346831797235,21.027852662570407,1018.704266513057,771.60800883256536,331.1525
1975,CO,724640,PUEBLO MEMORIAL AIRPORT,38.289,-104.506,+1441.4,52.258220686123913,30.360396185355864,1013.1664068100358,853.86437980030723,331.1525
1975,CO,724660,CITY OF COLORADO SPRINGS MUNI,38.81,-104.688,+1884.0,48.230343061955963,25.022083973374297,1014.7831266001024,810.13399385560683,331.1525
1975,CO,724675,EAGLE CO RGNL,39.65,-106.917,+1993.0,40.980278417818738,24.310480670762928,1017.5644559651817,801.79982206861246,331.1525
1975,CO,724690,DENVER/STAPLETON INT,39.75,-104.867,+1612.0,49.174669098822321,27.590019201228877,1013.2963146441373,835.09695852534571,331.1525
1975,CO,724695,BUCKLEY AIR FORCE BASE,39.717,-104.75,+1726.1,48.870146569380438,26.4376113671275,1012.5896927803381,9975.23817204301,331.1525
1975,CO,724760,GRAND JUNCTION REGIONAL AIRPO,39.134,-108.54,+1480.7,49.780511392729139,26.598449180747568,1015.6131618023553,852.10164682539687,331.1525
1975,CT,725040,IGOR I SIKORSKY MEMORIAL AIRP,41.164,-73.127,+0001.5,52.907182539682545,44.971722350230408,1017.2294777265745,1016.6538140040963,331.1525
1975,CT,725080,BRADLEY INTERNATIONAL AIRPORT,41.938,-72.682,+0053.3,51.371614823348686,39.260668842805934,1016.8691532258065,1010.2412115975422,331.1525
1975,DE,724088,DOVER AFB AIRPORT,39.133,-75.467,+0009.0,56.016833717357905,44.640718125960063,1017.5507629288276,9975.7319892473115,331.1525
1975,DE,724089,WILMINGTON NEW CAST,39.673,-75.601,+0024.4,55.194204429083456,43.372894265232979,1017.755293138761,1014.7151811315923,331.1525
1975,FL,722010,KEY WEST INTERNATIONAL AIRPOR,24.557,-81.755,+0000.3,79.186892601126488,69.3492479518689,1017.1159517409114,1016.4083352534561,331.1525
1975,FL,722015,KEY WEST NAS,24.583,-81.683,+0001.8,78.996748591909892,67.193660394265223,1017.199142985151,1017.1508538146441,331.1525
1975,FL,722020,MIAMI INTERNATIONAL AIRPORT,25.788,-80.317,+0008.8,76.773975934459827,67.421338325652854,1017.9902374551971,1017.7031105990783,331.1525
1975,FL,722026,HOMESTEAD ARB,25.483,-80.383,+0002.0,75.742786738351242,66.636023425499218,1017.0019489247312,9950.7769802867369,331.1525
1975,FL,722050,ORLANDO INTERNATIONAL AIRPORT,28.434,-81.325,+0027.4,71.915217613927283,62.622156298003077,1018.5164618535586,1014.7986187916027,331.1525
1975,FL,722056,DAYTONA BEACH INTL,29.183,-81.048,+0012.5,71.150999743983618,63.132830261136704,1018.4875128008192,1042.0368465181771,331.1525
1975,FL,722060,JACKSONVILLE  INTERNATIONAL A,30.495,-81.694,+0007.9,68.3881797235023,60.550026241679475,1018.7795711725551,1017.7587243983614,331.1525
1975,FL,722065,JACKSONVILLE NAS,30.233,-81.667,+0006.1,69.388870967741923,60.627818740399384,1018.2960074244752,1017.3731400409627,331.1525
1975,FL,722066,MAYPORT NAF,30.4,-81.417,+0004.9,71.403819955406917,128.8073138238573,1018.2306633221851,2494.888977703456,331.1525
1975,FL,722067,CECIL FLD,30.219,-81.876,+0025.0,69.222532642089092,60.141591141833082,1018.0004147465438,1015.4535983102917,331.1525
1975,FL,722110,TAMPA INTERNATIONAL AIRPORT,27.962,-82.54,+0005.8,73.571083589349712,62.966146313364042,1018.0780081925243,1017.7097247823862,331.1525
1975,FL,722140,TALLAHASSEE REGIONAL AIRPORT,30.393,-84.353,+0016.8,67.027076292882739,86.9231746031746,1018.3680702764977,1015.9498047875063,331.1525
1975,FL,722200,APALACHICOLA MUNI AIRPORT,29.733,-85.033,+0006.0,68.699830256722635,61.755236903437684,1017.9382575436553,4760.3467293906806,331.1525
1975,FL,722210,VALPARAISO/EGLIN AF,30.483,-86.517,+0029.0,67.3988050435228,57.976469534050175,1042.5865252176141,7752.92136200717,331.1525
1975,FL,722225,PENSACOLA NAS,30.35,-87.317,+0008.5,68.677411674347155,60.494605094726069,1018.2009222990271,1066.1945775729648,331.1525
1975,FL,722226,WHITING FIELD NAVAL AIR STATI,30.717,-87.017,+0060.7,66.736079109062985,57.572970430107532,1017.72243343574,1011.4781650025601,331.1525
1975,FL,722227,PENSACOLA SAUFLEY NAS,30.483,-87.35,+0028.0,70.299356592052,58.31077388118991,1018.6109016362391,1240.240474690607,331.1525
1975,FL,747750,TYNDALL AFB AIRPORT,30.067,-85.583,+0005.2,68.5497977470558,61.302871223758324,1017.6084677419356,9975.730376344085,331.1525
1975,FL,747880,MACDILL AFB/TAMPA,27.85,-82.5,+0004.3,73.539587813620059,63.521557219662043,1017.5384504608296,9975.7389784946245,331.1525
1975,FL,747940,COCOA BEACH CAPE KENNEDY AFS,28.483,-80.567,+0003.1,72.415835893497189,64.747932667690719,1018.6730542754736,1017.9902086533539,331.1525
1975,FL,747950,PATRICK AFB/COCOA B,28.233,-80.6,+0003.0,76.317952853598015,64.98512475875377,1018.4691852770885,9975.7424731182782,331.1525
1975,GA,722070,SAVANNAH/HILTON HEAD INTL AIR,32.131,-81.202,+0014.0,66.606198796722992,57.889699820788536,1018.9561943164363,1017.1718759600615,331.1525
1975,GA,722090,WRIGHT AAF AIRPORT,31.883,-81.567,+0014.0,68.997240584286274,57.926069494225416,1255.7721343232633,9975.7354838709671,331.1525
1975,GA,722170,MIDDLE GEORGIA REGIONAL AIRPO,32.685,-83.653,+0104.6,63.864992959549419,54.192064772145415,1018.7494751664108,1005.7904563492065,331.1525
1975,GA,722175,ROBINS AFB AIRPORT,32.633,-83.6,+0090.0,65.085417946748592,54.961519457245259,1018.1644937275986,9951.512096774195,331.1525
1975,GA,722180,AUGUSTA REGIONAL AT BUSH FIEL,33.364,-81.963,+0040.2,62.502910266257047,52.176548259088577,1018.1862826420893,1012.906250640041,331.1525
1975,GA,722190,HARTSFIELD-JACKSON ATLANTA IN,33.63,-84.442,+0307.9,60.548533666154626,50.741459293394776,1018.2050716845878,981.39436699948783,331.1525
1975,GA,722255,COLUMBUS METRO AIRPORT,32.516,-84.942,+0119.5,64.087313748079865,54.237614567332308,1018.5284050179212,1004.431473374296,331.1525
1975,GA,722270,MARIETTA/DOBBINS AF,33.917,-84.517,+0326.0,61.656856758832568,51.397452636968765,1042.990630440348,9925.5211469534061,331.1525
1975,GA,723110,ATHENS/BEN EPPS AIRPORT,33.948,-83.328,+0239.3,61.939327956989231,52.894743343573985,1018.1399852790578,989.18646441372255,331.1525
1975,GA,747804,HUNTER ARMY AIRFIELD,32.017,-81.133,+0013.0,69.5440520307905,58.859358094323952,4821.1288809637908,9967.384057971014,331.1525
1975,GA,747810,MOODY AFB/VALDOSTA,30.967,-83.2,+0071.0,67.559793266769063,57.69400793650793,1067.9181246799792,9975.7147849462363,331.1525
1975,HI,911620,BARKING SANDS PACIFIC MISSILE,22.033,-159.783,+0007.0,75.936346418965641,64.073223501066437,2094.0351736490943,3512.8849577656765,331.1525
1975,HI,911650,LIHUE AIRPORT,21.984,-159.341,+0030.5,75.042791858678939,65.309786226318479,1018.3499635176651,1013.1211949564772,331.1525
1975,HI,911700,WHEELER ARMY AIRFIELD,21.487,-158.028,+0257.9,72.828090426752837,63.026404978194464,1119.5629315421015,9850.45343189964,331.1525
1975,HI,911760,KANEOHE MCAS,21.45,-157.768,+0007.3,75.235921658986172,65.749735663082433,1017.9424545570917,1017.0820455709165,331.1525
1975,HI,911780,KALAELOA ARPT,21.317,-158.067,+0015.0,75.185064644137242,62.8050582437276,1016.8181221198157,1015.1925524833589,331.1525
1975,HI,911820,HONOLULU INTERNATIONAL AIRPOR,21.324,-157.929,+0002.1,75.231137992831549,63.658918970814121,1017.1803987455198,1479.4859254992318,331.1525
1975,HI,911900,KAHULUI AIRPORT,20.9,-156.429,+0015.5,74.157594086021518,62.390429467485916,1016.7348079877112,1014.3532283666156,331.1525
1975,HI,912850,HILO INTERNATIONAL AIRPORT,19.719,-155.053,+0011.6,72.359025857654885,64.447649129544274,1017.9272004608295,1016.6727521761392,331.1525
1975,IA,725450,THE EASTERN IOWA AIRPORT,41.883,-91.717,+0264.6,47.448869047619048,37.343545826932917,1016.9315821812596,985.05233678955449,331.1525
1975,IA,725460,DES MOINES INTERNATIONAL AIRP,41.534,-93.653,+0291.7,50.344428443420377,39.073541346646188,1016.4758109318997,981.43711533538146,331.1525
1975,IA,725465,OTTUMWA INDUSTRIAL AIRPORT,41.108,-92.447,+0256.6,50.657063492063486,41.435272657450071,1016.4208109318995,985.48981502816173,331.1525
1975,IA,725470,DUBUQUE REGIONAL AIRPORT,42.398,-90.704,+0321.9,46.535466589861755,37.139319636456733,1016.974486687148,977.30188108038919,331.1525
1975,IA,725480,WATERLOO MUNICIPAL AIRPORT,42.554,-92.401,+0264.6,47.037770737327186,36.20615527393754,1016.737174859191,984.50888696876609,331.1525
1975,IA,725485,MASON CITY MUNICIPAL ARPT,43.154,-93.327,+0373.4,45.983170122887863,37.377435995903738,1016.1880248335893,971.41081797235017,331.1525
1975,IA,725570,SIOUX GATEWAY/COL BUD DAY FIE,42.391,-96.379,+0333.8,47.8843714797747,37.760692524321549,1016.1613082437275,975.8532616487455,331.1525
1975,IA,726500,SPENCER MUNICIPAL AIRPORT,43.167,-95.15,+0408.0,45.836706989247304,34.989218509984632,1114.4558371735791,1139.0099231950844,331.1525
1975,ID,725780,POCATELLO REGIONAL AIRPORT,42.92,-112.571,+1357.0,46.153758320532511,29.182234383000509,1016.6515956221197,862.90119239631338,331.1525
1975,ID,726810,BOISE AIR TERMINAL/GOWEN FD A,43.567,-116.241,+0857.7,50.549226830517156,31.711249359959041,1016.5552739375321,915.884109703021,331.1525
1975,ID,726815,MOUNTAIN HOME AFB AIRPORT,43.05,-115.867,+0913.2,50.574992959549412,29.082418714797747,1015.8386834357399,9975.4615591397833,331.1525
1975,ID,727830,LEWISTON-NEZ PERCE COUNTY AIR,46.375,-117.016,+0437.7,52.742415514592935,37.19767729134665,1016.4129883512546,964.41580453149015,331.1525
1975,IL,724338,SCOTT AIR FORCE BASE/MIDAMERI,38.55,-89.833,+0140.0,56.451129672299025,46.205117767537118,1016.6107667690732,9951.4889784946245,331.1525
1975,IL,724390,ABRAHAM LINCOLN CAPITAL AIRPO,39.845,-89.684,+0181.1,53.316324884792635,43.992647849462365,1017.1811098310291,994.81932219662065,331.1525
1975,IL,724396,QUINCY RGNL BALDWIN,39.937,-91.192,+0233.5,52.71967357910907,41.562626088069635,1016.7686597542242,988.972893625192,331.1525
1975,IL,725300,CHICAGO O'HARE INTERNATIONAL,41.96,-87.932,+0201.8,51.034656938044037,40.9967620327701,1016.4681464413724,991.93370775729636,331.1525
1975,IL,725306,GLENVIEW NAS,42.083,-87.817,+0199.0,50.455542114695341,41.491206477214533,1017.2300326420892,993.51137352790579,331.1525
1975,IL,725320,GREATER PEORIA REGIONAL AIRPO,40.668,-89.684,+0198.1,50.82007104454685,41.90080453149001,1017.1781822836662,992.94440924219145,331.1525
1975,IL,725340,CHICAGO MIDWAY INTL ARPT,41.786,-87.752,+0186.5,51.343202124936,40.387387352790583,1017.1389324116743,994.33283922171017,331.1525
1975,IL,725430,GREATER ROCKFORD AIRPORT,42.193,-89.093,+0222.5,48.323108038914491,37.799676139272911,1016.9178673835125,989.58514912954433,331.1525
1975,IL,725440,QUAD CITY INTERNATIONAL AIRPO,41.465,-90.523,+0180.4,50.42464285714285,40.026712109575016,1016.7569265232977,994.98505824372751,331.1525
1975,IN,724320,EVANSVILLE REGIONAL AIRPORT,38.044,-87.521,+0121.9,56.981361367127505,47.084845750128004,1017.8763645673323,1003.7718445980541,331.1525
1975,IN,724370,TERRE HAUTE HULMAN REGIONAL A,39.45,-87.3,+0175.3,53.542328469022017,43.991315924219151,1018.3422574244752,996.71801907322072,331.1525
1975,IN,724380,INDIANAPOLIS INTERNATIONAL AI,39.725,-86.282,+0241.1,52.815900537634406,45.481184715821811,1017.6630638760881,988.32976766513059,331.1525
1975,IN,725330,FORT WAYNE INTERNATIONAL AIRP,40.971,-85.206,+0241.1,50.366720430107534,41.385352662570412,1017.5070180491551,987.25890873015874,331.1525
1975,IN,725335,GRISSOM ARB,40.65,-86.15,+0247.5,51.383300051203271,41.082729134664618,1016.3737160778289,9975.6411290322576,331.1525
1975,IN,725350,SOUTH BEND REGIONAL AIRPORT,41.707,-86.316,+0235.6,50.889031618023559,42.49828277009729,1016.5730453149002,988.36543010752689,331.1525
1975,KS,724500,WICHITA EISENHOWER NATIONAL,37.648,-97.43,+0402.6,55.137446876600109,43.49747695852534,1015.8578360215052,967.90945532514081,331.1525
1975,KS,724505,MCCONNELL AFB AIRPORT,37.617,-97.267,+0418.0,55.890186891961079,44.435761648745519,1015.9989100102405,9975.60887096774,331.1525
1975,KS,724510,DODGE CITY REGIONAL AIRPORT,37.769,-99.968,+0787.0,54.110891577060933,37.851954045058882,1014.6772062211982,923.97873911930355,331.1525
1975,KS,724550,MARSHALL ARMY AIRFIELD,39.1,-96.767,+0324.6,54.1782002048131,43.538920250896062,1015.8741877880185,9975.6373655913976,331.1525
1975,KS,724560,PHILIP BILLARD MUNICIPAL AIRP,39.073,-95.626,+0267.0,54.358205325140808,44.070323220686127,1016.3885765488992,984.42307859703033,331.1525
1975,KS,724565,FORBES FLD,38.95,-95.65,+0329.0,56.677013568868404,43.396477854582677,2035.4634325396823,9950.58857526882,331.1525
1975,KS,724580,BLOSSER MUNICIPAL AIRPORT,39.551,-97.651,+0447.8,52.804739503328207,40.994937916026629,1015.4282066052228,962.26816308243747,331.1525
1975,KS,724585,RUSSELL MUNICIPAL AIRPORT,38.876,-98.809,+0568.2,53.129257552483359,41.413479262672809,1015.0889356118793,948.66303635432666,331.1525
1975,KS,724586,SALINA MUNICIPAL AIRPORT,38.8,-97.65,+0393.0,54.3524366359447,43.472786738351253,1015.2092319508449,969.1440738607273,331.1525
1975,KS,724650,RENNER FIELD/GOODLAND MINI AI,39.367,-101.693,+1114.4,50.139557091653863,33.143937532002049,1014.0638287250385,886.7989964157706,331.1525
1975,KY,724210,CINCINNATI/NORTHERN KENTUCKY,39.044,-84.672,+0269.1,54.601962365591405,44.460449948796722,1017.7300800051204,985.98660010240644,331.1525
1975,KY,724220,BLUE GRASS AIRPORT,38.041,-84.606,+0298.7,55.67268561187916,45.373003072196624,1018.3535963901689,982.72943804403474,331.1525
1975,KY,724230,LOUISVILLE  INTL-STANDIFORD F,38.181,-85.739,+0148.7,57.360655401945721,46.919072580645157,1017.4580875576037,999.7834971838198,331.1525
1975,KY,724240,GODMAN AAF AIRPORT,37.9,-85.967,+0230.1,56.185623512701746,45.6152844454842,1069.1217640436266,9975.6502688172041,331.1525
1975,KY,746710,FORT CAMPBELL (AAF)          ,36.667,-87.483,+0174.7,57.730656682027643,48.098525345622122,1017.4934543010752,9925.6557437275987,331.1525
1975,LA,722310,LOUIS ARMSTRONG NEW ORLEANS I,29.997,-90.278,+0001.2,68.112268945212492,62.008382616487459,1017.2695583717358,1016.3416826676907,331.1525
1975,LA,722316,NEW ORLEANS NAS,29.817,-90.017,+0000.6,68.320692524321572,61.517638248847931,1017.3785701484894,1017.3176702508961,331.1525
1975,LA,722317,BATON ROUGE METRO R,30.537,-91.147,+0023.2,66.688264208909388,58.073691756272396,1017.6565610599079,1014.9483186123913,331.1525
1975,LA,722320,BATON ROUGE METRO RYAN FIELD,30.537,-89.408,+0019.5,69.692075012800828,63.425740527393756,1017.4199411162315,1042.4120135688686,331.1525
1975,LA,722400,LAKE CHARLES REGIONAL AIRPORT,30.125,-93.228,+0002.7,66.915671402969792,86.983163722478238,1017.007808499744,1015.9263914490527,331.1525
1975,LA,722405,LAFAYETTE REGIONAL AIRPORT,30.205,-91.988,+0011.6,67.804367639528934,58.934634536610346,1017.3623694316436,1015.9817767537122,331.1525
1975,LA,722480,SHREVEPORT REGIONAL AIRPORT,32.447,-93.824,+0077.4,63.98818612391193,53.785164490527393,1016.9609530209934,1007.7209216589862,331.1525
1975,LA,722485,BARKSDALE AIR FORCE BASE,32.5,-93.65,+0051.0,65.227400153609821,56.0696351766513,1016.8372753456221,9900.8059050179181,331.1525
1975,LA,722487,ESLER REGIONAL AIRPORT,31.395,-92.291,+0036.0,65.6709350998464,57.400796850998461,1017.3345110087046,1013.0894713261648,331.1525
1975,LA,747540,ALEXANDRIA INTL AIRPORT,31.335,-92.55,+0027.0,65.472759216589864,57.224164746543785,1016.8845238095237,9975.7212365591386,331.1525
1975,MA,725061,OTIS ANGB AIRPORT,41.65,-70.061,+0039.6,51.510262613730355,138.55911083540113,1017.2662055417701,1089.376264130135,331.1525
1975,MA,725090,GEN E L LOGAN INTERNATIONAL A,42.361,-71.01,+0003.7,52.531368407578078,39.871100870455706,1016.6524187147977,1015.6697548643112,331.1525
1975,MA,725095,WORCESTER RGNL,42.271,-71.873,+0310.0,46.547493599590375,408.20659882232468,1015.2425268817204,979.19203597030219,331.1525
1975,MA,725097,NAVAL AIR STATION,42.15,-70.933,+0049.1,51.388015873015874,68.261811955965157,1017.0658269329236,1011.321556579621,331.1525
1975,MA,744910,WESTOVER AFB/METROPOLITAN AIR,42.2,-72.533,+0075.0,50.438097798259086,39.653652713773674,1016.0408736559141,9226.180645161292,331.1525
1975,MA,744940,CHATHAM,41.667,-69.967,+0015.5,50.585373059360059,165.92334950292434,1015.0232146693396,1013.6152054917492,331.1525
1975,MD,724040,NAVAL AIR STATION,38.3,-76.417,+0011.9,58.491621223758315,49.311066308243731,1017.4342933947773,1015.9296972606247,331.1525
1975,MD,724060,BALTIMORE-WASHINGTON INTL AIR,39.173,-76.684,+0047.6,56.379172427035328,45.413799283154113,1018.2121460573478,1012.5491813876089,331.1525
1975,MD,745940,ANDREWS AIR FORCE BASE AIRPOR,38.817,-76.85,+0088.0,57.980759088581671,45.246487455197133,1017.6718766001023,7751.3026254480283,331.1525
1975,ME,726060,PORTLAND INTERNATIONAL JETPOR,43.642,-70.304,+0013.7,46.080896057347672,64.237679211469541,1016.142329749104,1013.6655760368664,331.1525
1975,ME,726071,BANGOR AIRPORT,44.798,-68.819,+0058.5,44.838095238095242,36.343568228366621,1016.0538748079877,1008.8298828725038,331.1525
1975,ME,726185,AUGUSTA STATE AIRPORT,44.316,-69.797,+0107.0,45.556591781874033,35.577813620071687,1015.7559018177163,1002.3357565284178,331.1525
1975,ME,727120,CARIBOU MUNICIPAL AIRPORT,46.871,-68.017,+0190.2,40.623591909882229,57.205289938556056,1014.3139458525345,990.77257488479256,331.1525
1975,ME,727125,LORING AFB/LIMESTON,46.95,-67.883,+0227.0,40.250556195596516,162.4804992319508,1014.9977764976959,8497.7339157706083,331.1525
1975,ME,743920,NAVAL AIR STATION,43.9,-69.933,+0021.3,45.487987711213513,36.054231950844859,1016.1107712493599,1013.447224782386,331.1525
1975,MI,725370,DETROIT METRO WAYNE COUNTY AI,42.231,-83.331,+0192.3,49.355160650281618,39.998182923707127,1016.8265021761393,992.49231886840766,331.1525
1975,MI,725377,SELFRIDGE ANGB,42.608,-82.818,+0177.0,48.529844256699093,39.3601392444672,1044.0644731040563,9975.6591397849443,331.1525
1975,MI,725390,CAPITAL CITY AIRPORT,42.776,-84.6,+0261.8,48.203629032258064,39.722160778289812,1016.6592517921147,984.65214605734775,331.1525
1975,MI,726350,GERALD R FORD INTERNATIONAL A,42.883,-85.524,+0244.8,47.657286226318483,39.415778289810547,1016.670137608807,987.18418138760876,331.1525
1975,MI,726360,MUSKEGON COUNTY AIRPORT,43.171,-86.237,+0190.5,48.433625192012293,39.382866743471581,1016.8149756784434,993.55231758832576,331.1525
1975,MI,726370,BISHOP INTERNATIONAL AIRPORT,42.967,-83.749,+0234.7,48.7875102406554,39.368559267793138,1016.3517370711726,988.20078853046584,331.1525
1975,MI,726379,MBS INTERNATIONAL AIRPORT,43.533,-84.08,+0201.2,48.806507296466975,39.277328469022017,1016.6535823092679,992.005788530466,331.1525
1975,MI,726380,ROSCOMMON COUNTY AIRPORT,44.359,-84.674,+0350.8,44.674743983614945,36.024430363543267,1016.4462903225806,973.84405081925252,331.1525
1975,MI,726387,CHERRY CAPITAL AIRPORT,44.741,-85.583,+0188.4,46.984996799795184,37.483727598566304,1016.7539810547876,993.50882616487456,331.1525
1975,MI,726390,ALPENA COUNTY REGIONAL AIRPOR,45.072,-83.564,+0208.5,44.488721198156682,34.9255958781362,1016.4234824628777,990.79666922683055,331.1525
1975,MI,726395,OSCODA-WURTSMITH AIRPORT,44.45,-83.4,+0193.0,46.479817736027407,797.89941569183509,1072.8890757316162,9970.9871794871779,331.1525
1975,MI,726480,DELTA COUNTY AIRPORT,45.733,-87.083,+0186.0,43.828492542626769,63.723754271655643,1016.2023364173763,993.300532294509,331.1525
1975,MI,727340,SAULT STE MARIE MUNI/SASN FIE,46.479,-84.357,+0220.1,41.391065668202756,33.799584613415263,1015.8182776497695,988.83368791602663,331.1525
1975,MI,727435,MACKINACK ISLAND,45.865,-84.637,+0226.0,39.9733493343574,31.745966461853556,1015.5400947260624,9826.5414503328211,331.1525
1975,MN,726440,ROCHESTER INTERNATIONAL AIRPO,43.904,-92.492,+0397.5,44.212283026113667,35.153960573476695,1016.5671562980031,968.14611367127486,331.1525
1975,MN,726550,ST CLOUD REGIONAL AIRPORT,45.543,-94.051,+0310.3,42.382851382488475,32.961592421915,1016.6865956221199,978.595939580133,331.1525
1975,MN,726580,MINNEAPOLIS-ST PAUL INTERNATI,44.883,-93.229,+0265.8,45.256834357398873,34.394043778801844,1016.3025089605735,985.43232526881718,331.1525
1975,MN,727450,DULUTH INTERNATIONAL AIRPORT,46.837,-92.183,+0436.8,38.221050307219663,29.708056835637478,1016.1414906554019,963.6781637224783,331.1525
1975,MN,727455,CHISHOLM-HIBBING AIRPORT,47.386,-92.839,+0412.1,38.124136584741422,29.973890809011777,1016.1377771377367,965.87183499743981,331.1525
1975,MN,727470,FALLS INTERNATIONAL AIRPORT,48.561,-93.398,+0360.6,37.2375,27.001441372247825,1015.7351747311827,971.64782898105477,331.1525
1975,MN,727550,BEMIDJI-BELTRAMI CO ARPT,47.5,-94.933,+0424.3,40.4137724014337,31.095620199692778,1340.6712250384021,1038.2508288530464,331.1525
1975,MO,723489,CAPE GIRARDEAU RGNL,37.225,-89.571,+0107.3,57.314697260624691,50.566611623143885,1017.8762211981566,1005.1165303379418,331.1525
1975,MO,723490,MONETTE,36.917,-94.017,+0437.0,55.27918622102159,46.005343569574656,1016.7502526616876,965.406089967689,331.1525
1975,MO,724340,LAMBERT-ST LOUIS INTERNATIONA,38.753,-90.374,+0161.9,55.231303763440856,46.821699308755768,1017.4673412698412,997.01067844342049,331.1525
1975,MO,724400,SPRINGFIELD-BRANSON REGIONAL,37.24,-93.39,+0384.7,55.177242063492066,44.705421786994371,1016.9381675627241,971.39871543778816,331.1525
1975,MO,724450,COLUMBIA REGIONAL AIRPORT,38.817,-92.218,+0272.2,53.088997695852534,41.9532552483359,1017.2356080389145,984.748082437276,331.1525
1975,MO,724457,WAYNESVILLE RGNL AR,37.75,-92.133,+0353.3,57.42375384024578,45.182993471582179,1016.5979870711726,9975.6193548387073,331.1525
1975,MO,724460,KANSAS CITY INTERNATIONAL AIR,39.297,-94.731,+0306.3,54.03387864823349,43.172999871991813,1016.0415277777778,979.08270481310808,331.1525
1975,MO,724467,WHITEMAN AFB AIRPORT,38.717,-93.55,+0265.2,54.741681387608807,43.1630171530978,1016.19859703021,9975.64946236559,331.1525
1975,MS,722340,KEY FIELD AIRPORT,32.335,-88.744,+0089.6,63.411287122375825,54.884375320020474,1018.1536584741423,1007.0629659498208,331.1525
1975,MS,722345,MERIDIAN NAS/MC CAIN FD AP,32.55,-88.567,+0082.6,63.092661930363548,55.036200716845883,1018.1295327700974,1008.0078014592934,331.1525
1975,MS,722350,JACKSON INTERNATIONAL AIRPORT,32.321,-90.078,+0100.6,64.270906298003069,56.831474654377885,1017.7002860983102,1005.8594495647721,331.1525
1975,MS,723306,COLUMBUS AFB AIRPORT,33.65,-88.45,+0066.8,62.889838709677413,52.13149321556579,1017.5219905273938,9975.706451612903,331.1525
1975,MT,726675,MILES CITY MUNICIPAL ARPT,46.427,-105.883,+0802.8,44.090985023041469,31.629393241167431,1014.7406112391194,920.767806579621,331.1525
1975,MT,726770,BILLINGS LOGAN INTERNATIONAL,45.807,-108.542,+1091.5,44.090254096262157,26.488273809523811,1015.4104461085509,890.26999039938562,331.1525
1975,MT,726776,LEWISTOWN MUNICIPAL ARPT,47.049,-109.458,+1263.4,40.111387608806965,28.459080261136709,1015.4167325908859,871.21586149513575,331.1525
1975,MT,727680,WOKAL FIELD/GLASGOW INTL AIRP,48.214,-106.621,+0696.5,41.159114823348695,28.761355606758833,1015.264041218638,932.18978046595,331.1525
1975,MT,727720,HELENA REGIONAL AIRPORT,46.606,-111.964,+1166.8,40.4364503328213,26.46444124423963,1017.6005965181771,880.58575396825381,331.1525
1975,MT,727730,MISSOULA INTERNATIONAL AIRPOR,46.921,-114.093,+0972.9,42.256454173067077,58.880947900665625,1017.5662935227855,904.4495366103431,331.1525
1975,MT,727750,GREAT FALLS INTERNATIONAL AIR,47.473,-111.382,+1116.8,42.104943036354328,28.04472670250896,1016.3717690732207,887.2606419610853,331.1525
1975,MT,727755,MALMSTROM AFHP HELIPORT,47.517,-111.183,+1058.3,41.947596646185367,27.009503328213007,1014.7372126216078,9975.422849462364,331.1525
1975,MT,727770,HAVRE CITY-COUNTY AIRPORT,48.543,-109.763,+0787.9,42.345817972350233,28.486790834613416,1015.1132674091142,921.93675371223753,331.1525
1975,MT,727790,GLACIER PARK INTERNATIONAL AI,48.304,-114.264,+0901.3,41.856722350230406,29.389176907322064,1017.260857014849,911.40141449052749,331.1525
1975,MT,727796,CUT BANK MUNI,48.603,-112.375,+1169.8,38.123342933947775,175.7257283666155,1015.1239228110599,880.46686827956989,331.1525
1975,NC,723011,WILMINGTON NEW HANOVER COUNTY,34.268,-77.9,+0011.6,65.133629032258071,55.996381208397338,1018.584432923707,1017.2340879416282,331.1525
1975,NC,723030,POPE FIELD,35.174,-79.009,+0066.5,62.704405401945721,51.234380440348183,1018.007483358935,9951.5279569892464,331.1525
1975,NC,723040,CAPE HATTERAS  NC.           ,35.267,-75.55,+0003.4,64.058116999487964,56.59500192012289,1018.3933480542754,1017.991421530978,331.1525
1975,NC,723060,RALEIGH-DURHAM INTERNATIONAL,35.892,-78.782,+0126.8,58.910786610343067,48.436904761904756,1018.3252854582694,1002.4583845366104,331.1525
1975,NC,723066,SEYMOUR-JOHNSON AFB AIRPORT,35.344,-77.95,+0034.0,63.822026369687656,53.520671402969782,1018.8198828725039,9250.83064516129,331.1525
1975,NC,723090,CHERRY POINT MCAS,34.9,-76.883,+0008.8,63.739999999999995,55.241974526369688,1018.4030542754736,1042.0462864823348,331.1525
1975,NC,723096,JACKSONVILLE,34.708,-77.44,+0007.9,64.603152841781878,54.760872375832051,1018.0818887608807,1041.7064464925757,331.1525
1975,NC,723140,CHARLOTTE/DOUGLAS INTERNATION,35.224,-80.955,+0221.9,60.455661802355337,49.469089861751158,1018.4638479262672,991.0395052483359,331.1525
1975,NC,723150,ASHEVILLE REGIONAL AIRPORT,35.432,-82.538,+0645.3,55.109065540194571,47.454362519201219,1018.9197900665642,942.59583461341515,331.1525
1975,NC,723170,PIEDMONT TRIAD INTERNATIONAL,36.097,-79.943,+0271.3,59.155881336405528,49.839403481822842,1018.4660042242704,986.7247523041475,331.1525
1975,NC,746930,SIMMONS AAF AIRPORT,35.133,-78.933,+0074.4,62.249439324116729,51.060408346134146,1018.0721690988223,9975.713978494623,331.1525
1975,ND,727530,HECTOR INTERNATIONAL AIRPORT,46.925,-96.811,+0274.3,41.090645801331291,32.203518945212494,1015.7611136712749,982.35281746031751,331.1525
1975,ND,727575,GRAND FORKS AFB AIRPORT,47.967,-97.4,+0278.3,39.753757040450587,57.936150793650796,1015.179694700461,9927.1403225806444,331.1525
1975,ND,727576,GRAND FORKS INTL,47.943,-97.184,+0253.6,39.204627496159752,30.434132744495649,1015.5282059651818,984.45291858678956,331.1525
1975,ND,727640,BISMARCK MUNICIPAL AIRPORT,46.783,-100.757,+0503.2,41.71104902713774,30.419515488991291,1015.1605984383,954.3848566308244,331.1525
1975,ND,727645,DICKINSON MUNI,46.799,-102.797,+0787.3,40.541288402457759,30.329976318484384,1014.9077112135177,922.15353622631847,331.1525
1975,ND,727670,SLOULIN FIELD INTERNATIONAL A,48.174,-103.637,+0579.7,39.996909882232458,29.84082757296467,1015.4498111879161,945.8112960829493,331.1525
1975,ND,727676,MINOT INTERNATIONAL ARPT,48.255,-101.273,+0507.5,40.873122759856635,30.738106118791602,1016.1016775473631,953.25665770609316,331.1525
1975,NE,725500,EPPLEY AIRFIELD AIRPORT,41.31,-95.899,+0299.3,51.500558755760366,40.841960445468509,1015.7035176651306,980.07901049667191,331.1525
1975,NE,725510,LINCOLN MUNICIPAL AIRPORT,40.851,-96.748,+0362.7,50.096246159754223,39.426886200716844,1015.8191589861751,1045.6288888888887,331.1525
1975,NE,725520,CENTRAL NEBRASKA REGIONAL AIR,40.961,-98.314,+0560.8,49.889103302611367,37.7442722734255,1015.6080350742449,948.95821236559141,331.1525
1975,NE,725540,OFFUTT AFB AIRPORT,41.117,-95.9,+0321.0,49.881477854582691,38.731485535074235,1015.7854313876087,9950.5836021505384,331.1525
1975,NE,725560,KARL STEFAN MEMORIAL AIRPORT,41.986,-97.435,+0472.7,49.91064452124936,36.717274065540195,1015.4855741167435,959.29555427547371,331.1525
1975,NE,725620,NORTH PLATTE RGNL AP LEE BIRD,41.121,-100.669,+0846.7,46.873907450076807,33.20697324628776,1015.4084543010752,916.79794738863291,331.1525
1975,NE,725660,WESTERN NE REGIONAL/HEILIG FI,41.871,-103.593,+1202.4,47.775378904249877,29.619178187403989,1014.5589343317971,878.10273233486942,331.1525
1975,NE,725670,MILLER FIELD AIRPORT,42.878,-100.55,+0789.4,47.667032130056327,61.000177291346645,1065.1042153097796,8487.0319796466974,331.1525
1975,NH,726050,CONCORD MUNICIPAL AIRPORT,43.205,-71.503,+0104.6,46.122150537634411,36.60281554019457,1016.6317767537122,1003.7420084485407,331.1525
1975,NH,726055,PEASE INTL TRADEPOR,43.083,-70.817,+0031.0,48.211828597030205,37.34511456733231,1015.9759210189452,9878.2451344086021,331.1525
1975,NH,726130,MT. WASHINGTON OBSERVATORY,44.27,-71.3,+1911.7,27.514600614439324,22.223719278033794,9999.9,828.08422299027154,331.1525
1975,NJ,724070,ATLANTIC CITY INTERNATIONAL A,39.452,-74.567,+0018.3,54.045351382488477,46.535696364567329,1017.8599609575014,1015.4171652585766,331.1525
1975,NJ,724090,NAES/MAXFIELD FIELD,40.033,-74.35,+0030.8,53.674485407066058,44.185221454173075,1017.6499244751665,1037.9527432155658,331.1525
1975,NJ,724096,MCGUIRE AFB AIRPORT,40.017,-74.583,+0040.0,54.673389016897076,43.6538082437276,1017.3711405529955,9951.5774193548386,331.1525
1975,NJ,725020,NEWARK LIBERTY INTERNATIONAL,40.683,-74.169,+0002.1,54.740956221198154,42.375780209933424,1017.37234703021,1016.3577508960574,331.1525
1975,NM,722680,ROSWELL INTERNATIONAL AIR CEN,33.308,-104.508,+1112.2,59.21436571940604,37.111761392729136,1013.1537948028673,889.45172171018953,331.1525
1975,NM,722686,CANNON AFB AIRPORT,34.383,-103.317,+1309.1,56.673538146441373,35.403959293394777,1013.5745199692781,9925.4417025089624,331.1525
1975,NM,723627,GALLUP MUNICIPAL AIRPORT,35.514,-108.794,+1972.4,46.154557731694823,28.358527905785969,1016.8183250128009,829.35464733742947,331.1525
1975,NM,723650,ALBUQUERQUE INTL SUNPORT AIRP,35.042,-106.616,+1618.5,54.161662826420894,28.310614439324119,1014.3563152841782,838.07573796723011,331.1525
1975,NM,723658,FOUR CORNERS RGNL,36.744,-108.217,+1678.0,47.136171915002549,25.649346518177161,1016.9122619047619,832.69016833077319,331.1525
1975,NM,723676,TUCUMCARI MUNICIPAL ARPT,35.183,-103.6,+1239.0,56.526802355350746,35.5509709421403,1013.5755491551459,876.7750313620071,331.1525
1975,NM,746300,STALLION AAF  NM,33.817,-106.667,+1506.0,61.374587035771242,30.48334010531379,9999.9,849.6223761423762,331.1525
1975,NV,723850,YUCCA FLATS TEST S T,36.95,-116.05,+1196.9,54.483072196620583,22.300704685099845,1013.9412026369689,880.554742063492,331.1525
1975,NV,723860,MCCARRAN INTERNATIONAL AIRPOR,36.072,-115.163,+0664.5,65.612406554019458,26.274270993343574,1013.9648015873015,937.87248271889393,331.1525
1975,NV,724860,ELY AIRPORT/YELLAND FIELD/AIR,39.295,-114.847,+1908.7,43.301173195084488,24.658077956989246,1015.701696748592,808.82531041986692,331.1525
1975,NV,724880,RENO/TAHOE INTERNATIONAL AIRP,39.484,-119.771,+1344.2,49.089466845878135,29.220208013312853,1016.5167146697388,866.38800883256522,331.1525
1975,NV,724885,FALLON NAS,39.417,-118.717,+1199.1,54.511637864823349,31.709671658986178,1016.7661053507425,881.199829749104,331.1525
1975,NV,725830,WINNEMUCCA MUNICIPAL AIRPORT,40.902,-117.808,+1309.4,49.114454685099851,25.858102278545829,1016.2801286482335,868.76153737839218,331.1525
1975,NY,725030,LA GUARDIA AIRPORT,40.779,-73.88,+0003.4,54.574070660522281,41.625588197644639,1017.4965866615464,1016.4379755504352,331.1525
1975,NY,725035,LONG ISLAND MAC ART,40.794,-73.102,+0030.2,52.736586661546347,43.598980414746542,1017.9152188940092,1014.1571633384538,331.1525
1975,NY,725036,DUTCHESS COUNTY AIRPORT,41.626,-73.882,+0050.6,50.63062916026626,41.857257424475165,1017.7306374807987,1035.4382616487458,331.1525
1975,NY,725037,WESTCHESTER COUNTY AIRPORT,41.062,-73.705,+0111.9,51.071778673835119,41.064518689196113,1017.4972830261137,1026.0140713005633,331.1525
1975,NY,725150,GREATER BINGHAMTON/E A LINK F,42.207,-75.98,+0486.2,46.806494495647733,38.756827316948289,1017.7953501024066,958.35100614439318,331.1525
1975,NY,725180,ALBANY INTERNATIONAL AIRPORT,42.747,-73.799,+0085.3,48.201725550435235,37.826193036354319,1017.4962519201229,2018.6435029441882,331.1525
1975,NY,725190,SYRACUSE HANCOCK INTERNATIONA,43.111,-76.104,+0125.9,48.740784690220174,40.105262416794673,1017.0263108038915,1001.9106374807988,331.1525
1975,NY,725196,GRIFFISS AIRPARK,43.234,-75.407,+0158.2,47.506132232462875,38.66278801843319,1016.8805766769074,9975.6760752688169,331.1525
1975,NY,725280,BUFFALO NIAGARA INTERNATIONAL,42.94,-78.736,+0218.2,48.8785394265233,40.2944777265745,1016.9561770353301,991.00204877112128,331.1525
1975,NY,725287,NIAGARA FALLS INTL AIRPORT,43.108,-78.933,+0180.0,48.363882488479256,39.99913722478238,1016.9069233230928,9950.6640143369168,331.1525
1975,NY,725290,GREATER ROCHESTER INTERNATION,43.117,-77.675,+0164.3,49.103390937019967,40.070962621607784,1017.006113671275,996.56791026625717,331.1525
1975,NY,726221,MASSENA AP,44.936,-74.846,+0065.2,44.60373399897594,35.752174219150028,1016.0677988991296,1008.2887307987712,331.1525
1975,NY,726225,PLATTSBURGH INTL,44.651,-73.467,+0071.3,45.78336853558627,35.836842037890428,1016.3612461597542,9975.7016129032254,331.1525
1975,NY,726227,WATERTOWN INTL AIRPORT,43.989,-76.026,+0096.9,46.472405273937532,37.602887224782386,1016.317601766513,9706.48417562724,331.1525
1975,NY,744860,JOHN F KENNEDY INTERNATIONAL,40.639,-73.764,+0003.4,54.3432174859191,43.612208781362007,1017.5498259088582,1016.832720814132,331.1525
1975,OH,724280,PORT COLUMBUS INTERNATIONAL A,39.991,-82.877,+0248.7,53.191966845878135,43.57557283666155,1017.9469585253455,987.731371607783,331.1525
1975,OH,724285,RICKENBACKER INTL AIRPORT,39.817,-82.917,+0227.0,52.981877240143362,42.612593445980544,1017.0374891193036,9876.16064708141,331.1525
1975,OH,724290,J.M.COX DAYTON INTERNATIONAL,39.906,-84.219,+0305.7,52.754141065028165,42.970345622119815,1017.6533518945212,981.32150857654892,331.1525
1975,OH,725210,AKRON-CANTON REGIONAL AIRPORT,40.918,-81.444,+0369.7,51.225947260624679,41.93200588837685,1017.7429038658474,972.88502944188429,331.1525
1975,OH,725240,CLEVELAND-HOPKINS INTERNATION,41.406,-81.852,+0238.1,50.512117255504343,41.7261008704557,1017.5213620071685,988.14410266257039,331.1525
1975,OH,725246,MANSFIELD LAHM RGNL,40.82,-82.518,+0399.9,50.106890681003584,42.4371095750128,1017.8967095494112,970.35323604710709,331.1525
1975,OH,725250,YOUNGSTOWN-WARREN REGIONAL AI,41.255,-80.674,+0355.7,49.623381976446488,40.282062211981568,1017.6369566052228,974.58795058883766,331.1525
1975,OH,725360,TOLEDO EXPRESS AIRPORT,41.587,-83.806,+0205.4,49.456607142857145,40.98670442908346,1017.2463991295442,991.81520033282141,331.1525
1975,OH,745700,WRIGHT-PATTERSON AFB AIRPORT,39.833,-84.05,+0251.0,53.281990527393752,41.72319060419867,1016.7425198412698,9951.4096774193549,331.1525
1975,OK,723520,ALTUS AFB AIRPORT,34.65,-99.267,+0421.2,59.1953801843318,46.3152432155658,1014.6668772401433,9923.64369751664,331.1525
1975,OK,723530,WILL ROGERS WORLD AIRPORT,35.389,-97.601,+0391.7,58.34069060419867,46.3205325140809,1016.2276932923708,969.81610599078351,331.1525
1975,OK,723540,TINKER AFB AIRPORT,35.417,-97.383,+0397.0,59.522046850998464,46.270857014848943,1015.7130254736304,9950.5264068100369,331.1525
1975,OK,723546,PONCA CITY MUNI,36.737,-97.102,+0304.2,57.187501280081932,46.687709933435741,1015.6772228622632,980.23639080901182,331.1525
1975,OK,723550,HENRY POST AAF AIRPORT,34.65,-98.4,+0362.4,60.388552867383517,47.381009344598056,1015.2259005376343,9975.6260752688177,331.1525
1975,OK,723560,TULSA INTERNATIONAL AIRPORT,36.199,-95.887,+0198.1,59.030629800307224,47.766905401945721,1016.4121294162828,992.09902777777791,331.1525
1975,OR,725895,KLAMATH FALLS AIRPORT,42.15,-121.724,+1248.0,45.190032642089093,31.630420506912444,1018.0133819764466,9950.0284050179216,331.1525
1975,OR,725970,ROGUE VALLEY INTL-MEDFORD AIR,42.375,-122.877,+0400.2,51.76490975422427,38.48212173579109,1018.5027233742959,970.54098758320526,331.1525
1975,OR,725975,SEXTON SUMMIT,42.6,-123.364,+1168.0,46.156659626216069,142.42801587301585,1017.2789695340501,884.53738479262677,331.1525
1975,OR,726830,BURNS MUNICIPAL AIRPORT,43.595,-118.95,+1271.0,46.547903225806451,30.502443676395291,1017.4426625704044,2008.9050115207374,331.1525
1975,OR,726835,ROBERTS FLD,44.256,-121.139,+0940.0,45.895910138248844,31.096319124423964,1017.0605677163338,908.64533730158735,331.1525
1975,OR,726880,EASTERN OR REGIONAL AT PENDLE,45.698,-118.855,+0452.9,53.757777777777783,35.778894649257559,1016.7471089349718,962.878099718382,331.1525
1975,OR,726930,MAHLON SWEET FIELD AIRPORT,44.128,-123.221,+0107.6,53.26789298515105,46.146178955453145,1018.3018529185869,1004.588833205325,331.1525
1975,OR,726940,MCNARY FIELD AIRPORT,44.905,-123.001,+0062.5,51.369264592933952,42.672658090117771,1018.0008698156682,1010.5836507936508,331.1525
1975,OR,726980,PORTLAND INTERNATIONAL AIRPOR,45.596,-122.609,+0005.8,52.359827188940088,42.139646057347669,1017.8860656682027,1016.6265168970814,331.1525
1975,OR,727910,ASTORIA REGIONAL AIRPORT,46.157,-123.883,+0002.7,50.049612775217611,96.51929019457242,1018.1060035842294,1017.289299155146,331.1525
1975,PA,724080,PHILADELPHIA INTERNATIONAL AI,39.873,-75.227,+0003.1,55.804352918586787,44.078815284178184,1017.8711776753712,1016.8548028673836,331.1525
1975,PA,724086,WILLOW GROVE NAS,40.2,-75.15,+0110.0,53.820778929851514,43.322624167946749,1018.1205875576038,1004.267311187916,331.1525
1975,PA,725110,HARRISBURG CAPITAL CITY ARPT,40.217,-76.851,+0105.8,53.323206605222737,43.929126984126988,1018.5440552995391,1005.7262551203277,331.1525
1975,PA,725111,HARRISBURG CAPITAL CITY ARPT,40.217,-76.85,+0107.0,53.274761264720929,43.945881336405535,1018.5357808499743,6900.7100972862263,331.1525
1975,PA,725130,WILKES-BARRE/SCRANTON INTL AI,41.334,-75.727,+0283.5,51.2361027905786,40.181581541218634,1017.601148873528,983.09702124936,331.1525
1975,PA,725140,WILLIAMSPORT REGIONAL AIRPORT,41.243,-76.922,+0158.5,50.392192780337936,40.680504992319506,1017.8865783410139,998.62887672811053,331.1525
1975,PA,725170,LEHIGH VALLEY INTERNATIONAL A,40.65,-75.448,+0118.9,52.121539938556054,40.63418266769073,1017.8679838709678,1003.6936335125448,331.1525
1975,PA,725200,PITTSBURGH INTERNATIONAL AIRP,40.485,-80.214,+0366.7,50.9170532514081,38.302188940092165,1018.0537032770096,973.76448988735285,331.1525
1975,PA,725260,ERIE INTL/T. RIDGE FIELD AIRP,42.08,-80.182,+0222.2,48.7449039938556,41.027603686635956,1017.5986930363543,990.53920506912448,331.1525
1975,PA,725266,BRADFORD REGIONAL AIRPORT,41.798,-78.636,+0652.9,45.855165770609318,37.369058499743979,1017.5491551459294,940.47663978494643,331.1525
1975,PR,785260,LUIS MUNOZ MARIN INTERNATIONA,18.433,-66.011,+0002.7,79.681934843830021,67.849220430107522,1016.2910650281618,1013.8835387864822,331.1525
1975,PR,785350,NAVAL STATION ROOSEVELT ROADS,18.255,-65.641,+0010.1,79.117081413210443,69.659968637992833,1016.3526990527395,1015.1132776497695,331.1525
1975,RI,725070,THEODORE F GREEN STATE AIRPOR,41.723,-71.433,+0016.8,51.197908986175115,40.163858806963638,1016.9422740655402,1014.5558301331284,331.1525
1975,SC,722080,CHARLESTON AFB/INTERNATIONAL,32.899,-80.041,+0012.2,65.4533717357911,56.112752176139274,1018.7538338453661,1016.863953533026,331.1525
1975,SC,722085,BEAUFORT MCAS,32.483,-80.717,+0011.3,66.7908461341526,57.741689068100357,1018.4092837941627,1017.3973719918075,331.1525
1975,SC,722086,CHARLESTON NS,32.86,-79.95,+0001.0,66.66073220686124,333.2364176907322,1018.1902304147467,1017.6887295186892,331.1525
1975,SC,723100,COLUMBIA METROPOLITAN AIRPORT,33.942,-81.118,+0068.6,64.158356374808008,54.359007936507936,1018.3592537122375,1010.2600556835636,331.1525
1975,SC,723105,MCENTIRE AIR NATIONAL GUARD S,33.967,-80.8,+0077.4,65.563515104966712,53.41503136200717,1017.8202739375319,9975.7112903225789,331.1525
1975,SC,723120,GREENVILLE-SPARTANBURG INTL A,34.906,-82.213,+0291.1,59.95347030209934,49.982263824884789,1018.33363031234,983.69303891449056,331.1525
1975,SC,747900,SHAW AIR FORCE BASE,33.967,-80.467,+0073.5,63.631986047107013,54.224049539170508,1017.6641929083461,6953.868933691756,331.1525
1975,SC,747910,MYRTLE BEACH INTL AIRPORT,33.683,-78.933,+0008.0,66.539146825396841,56.751966205837171,1018.4176785714285,9975.7368279569873,331.1525
1975,SD,726510,JOE FOSS FIELD AIRPORT,43.578,-96.754,+0435.3,45.508579109062978,35.235003200204815,1015.9364196108551,963.87112327188947,331.1525
1975,SD,726540,HURON REGIONAL AIRPORT,44.398,-98.223,+0390.1,45.130953020993346,34.161845878136191,1014.8890738607271,967.71030849974386,331.1525
1975,SD,726590,ABERDEEN REGIONAL AIRPORT,45.443,-98.413,+0395.3,45.02252496159754,34.668079877112142,1015.1348764720942,967.65844854070656,331.1525
1975,SD,726620,RAPID CITY REGIONAL AIRPORT,44.046,-103.054,+0963.2,45.347353430619563,30.450805811571939,1015.2557315668203,903.43560227854562,331.1525
1975,SD,726625,ELLSWORTH AIR FORCE BASE,44.15,-103.1,+0999.1,46.250082565284174,31.882869303635434,1014.1994790066564,9975.4368279569881,331.1525
1975,SD,726686,PIERRE RGNL,44.381,-100.286,+0526.1,46.411608422939068,92.820064004096267,1014.5802368151561,952.28341397849454,331.1525
1975,TN,723181,BRISTOL TRI CITY AIRPORT,36.473,-82.404,+0464.8,56.677306707629292,48.228845366103435,1018.4344540450588,964.13835573476706,331.1525
1975,TN,723240,LOVELL FIELD AIRPORT,35.034,-85.2,+0204.2,58.095479390681007,49.417128136200716,1018.312434715822,993.554524449565,331.1525
1975,TN,723260,MC GHEE TYSON AIRPORT,35.818,-83.986,+0293.2,58.833410138248851,50.09503840245776,1018.6647926267282,983.52164106502823,331.1525
1975,TN,723270,NASHVILLE INTERNATIONAL AIRPO,36.119,-86.689,+0182.9,60.245040322580657,50.695726446492571,1017.771011264721,996.03890424987208,331.1525
1975,TN,723340,MEMPHIS INTERNATIONAL AIRPORT,35.056,-89.987,+0077.4,62.37531810035842,50.829630696364575,1017.9002259344599,1007.6585637480798,331.1525
1975,TN,723345,MEMPHIS NAS,35.35,-89.867,+0097.5,60.799214669738873,49.2588716077829,1017.2741698668715,1006.6543823604711,331.1525
1975,TN,724270,OAK RIDGE,39.2,-81.27,+0279.0,54.412012288786478,1026.5241097030209,1017.7742543522785,986.30470494111614,331.1525
1975,TX,722410,SOUTHEAST TEXAS REGIONAL AIRP,29.951,-94.021,+0004.9,67.165912698412711,60.58264208909371,1016.9130837173578,1016.201577060932,331.1525
1975,TX,722420,SCHOLES INTL AT GLSTON APT,29.3,-94.8,+0016.0,70.059568113260426,61.138750702527176,1074.7155030278084,1072.7331924632172,331.1525
1975,TX,722430,G BUSH INTERCONTINENTAL AP/HO,29.98,-95.36,+0029.0,67.265177291346646,58.859636456733234,1016.6266378648234,1012.8970417306707,331.1525
1975,TX,722436,HOUSTON/ELLINGTON,29.617,-95.167,+0010.0,68.558201484895037,60.282723374295948,1016.7898950332821,9875.9103763440853,331.1525
1975,TX,722446,ANGELINA COUNTY AIRPORT,31.236,-94.754,+0087.8,67.424785586277522,58.092501920122878,1016.600238735279,1005.4302496159754,331.1525
1975,TX,722500,BROWNSVILLE/S PADRE  ISLAND I,25.914,-97.423,+0007.3,73.024728622631841,64.111370967741934,1014.9020058883768,1014.2354339477725,331.1525
1975,TX,722510,CORPUS CHRISTI  INTERNATIONAL,27.774,-97.512,+0013.4,71.9824980798771,63.453030593958033,1015.3863901689707,1013.7563594470046,331.1525
1975,TX,722515,CORPUS CHRISTI NAS,27.683,-97.283,+0005.5,73.7376849718382,92.138023553507423,1015.8767722734254,1015.2522676651305,331.1525
1975,TX,722516,KINGSVILLE NAS,27.5,-97.817,+0015.2,70.669383000512028,59.57898233486943,1016.1910035842294,1014.3510496671786,331.1525
1975,TX,722530,SAN ANTONIO INTERNATIONAL AIR,29.544,-98.484,+0240.5,67.278117639528944,54.559062339989765,1015.6171095750127,987.72177291346645,331.1525
1975,TX,722535,LACKLAND AIR FORCE BASE (KELL,29.383,-98.583,+0211.0,67.821317844342047,55.5927329749104,1015.3316474654379,9975.673655913979,331.1525
1975,TX,722536,RANDOLPH AFB AIRPORT,29.533,-98.262,+0232.0,67.521918842805945,56.376641705069126,1015.6393356374808,9975.6680107526845,331.1525
1975,TX,722540,AUSTIN/MUELLER MUNI,30.321,-97.68,+0200.6,66.642566564260122,55.112619047619049,1015.8338760880697,993.94122503840231,331.1525
1975,TX,722545,BERGSTROM AFB/AUSTI,30.2,-97.68,+0165.0,67.01954813108037,56.21942588325652,1015.7696383768561,9975.6860215053748,331.1525
1975,TX,722550,VICTORIA REGIONAL AIRPORT,28.861,-96.93,+0035.1,69.866987967229889,60.867018689196115,1015.9087058371734,1011.7659139784947,331.1525
1975,TX,722556,CHASE NAVAL AIR STATION,28.367,-97.667,+0020.1,68.962693932411668,86.317747055811566,1015.6811680747568,1033.0051747311829,331.1525
1975,TX,722560,WACO REGIONAL AIRPORT,31.619,-97.228,+0152.4,64.891116871479767,53.280110087045571,1016.0512192780337,998.02692716333854,331.1525
1975,TX,722576,ROBERT GRAY AFF AIRPORT,31.067,-97.833,+0309.4,65.810887736815147,52.753199564772139,1015.7973252688173,9925.5430197132628,331.1525
1975,TX,722585,NAVAL AIR STATION OPERATIONS,32.733,-96.967,+0150.0,65.4584434203789,51.486817076292887,1016.0289432923707,999.16753648233475,331.1525
1975,TX,722590,DALLAS/FT WORTH INTERNATIONAL,32.898,-97.019,+0170.7,65.219383000512025,51.22447708653354,1016.1251280081925,994.99226958525344,331.1525
1975,TX,722595,FORT WORTH NAVAL AIR STATION,32.767,-97.45,+0185.3,65.3662378392217,51.056797235023048,1015.8449167946748,9975.6763440860213,331.1525
1975,TX,722610,DEL RIO INTL,29.378,-100.917,+0315.0,68.416139272913483,52.665568996415772,1014.2011021505376,978.33115783410142,331.1525
1975,TX,722615,LAUGHLIN AFB AIRPORT,29.367,-100.783,+0330.0,67.8574609575013,52.0663389656938,1294.9840200972862,9975.6403225806444,331.1525
1975,TX,722630,SAN ANGELO REGIONAL/MATHS FIE,31.352,-100.495,+0584.0,63.309642857142869,48.005773169482843,1014.9393177163337,948.61589477726579,331.1525
1975,TX,722650,MIDLAND INTERNATIONAL AIRPORT,31.948,-102.209,+0872.3,62.38451804915514,43.239315796210953,1013.6495506912443,915.97104006656434,331.1525
1975,TX,722660,ABILENE REGIONAL AIRPORT,32.411,-99.682,+0545.6,61.9372363031234,46.928574628776239,1015.0334850230414,952.50018241167436,331.1525
1975,TX,722670,LUBBOCK INTERNATIONAL AIRPORT,33.666,-101.823,+0991.8,58.510247695852534,39.953018433179729,1014.1652169738863,903.43849846390162,331.1525
1975,TX,722675,REESE AFB/LUBBOCK,33.6,-102.05,+1017.0,60.319852150537635,40.786986687147973,1063.5420225294417,9975.4338709677413,331.1525
1975,TX,722700,EL PASO INTERNATIONAL AIRPORT,31.811,-106.376,+1194.2,62.802203661034305,33.3071780593958,1012.8331720430108,881.89624935995914,331.1525
1975,TX,723510,SHEPPARD AFB/WICHITA FALLS MU,33.979,-98.493,+0310.0,61.887330389144907,48.6071729390681,1015.7001740911419,979.59115207373259,331.1525
1975,TX,723630,AMARILLO RICK HUSBAND INTL AI,35.23,-101.704,+1098.5,55.491127112135167,37.073461341525856,1013.5064452124936,890.4506874039937,331.1525
1975,UT,724755,CEDAR CITY REGIONAL ARPT,37.709,-113.094,+1702.6,50.284220430107524,29.709281874039938,1015.5484959037379,828.4891557859703,331.1525
1975,UT,724756,BRYCE CANYON AIRPORT,37.706,-112.145,+2313.0,41.846190476190472,24.118243087557605,1016.2674430363544,845.390927419355,331.1525
1975,UT,725720,SALT LAKE CITY INTERNATIONAL,40.778,-111.969,+1287.8,50.417524321556577,32.331360087045567,1016.1634126984128,871.87984959037385,331.1525
1975,UT,725755,HILL AFB AIRPORT,41.117,-111.967,+1460.0,46.975581157194057,28.142016769073219,1014.8249462365591,9950.7478494623683,331.1525
1975,UT,725810,WENDOVER/AF. AUX. F,40.733,-114.033,+1292.0,51.24989247311828,27.890633640552991,1066.5120993343573,921.68394201228887,331.1525
1975,VA,723075,OCEANA NAS,36.817,-76.033,+0007.0,60.015320660522271,49.750935739887353,1018.2273335893498,1017.3574756784434,331.1525
1975,VA,723080,NORFOLK INTERNATIONAL AIRPORT,36.903,-76.192,+0009.1,60.413856246799789,50.007758576548888,1018.1810285458271,1017.1651715309779,331.1525
1975,VA,723085,NORFOLK NAS,36.937,-76.289,+0005.2,61.856465053763436,51.037012288786478,1019.1073323092678,1017.9650345622122,331.1525
1975,VA,723087,FELKER ARMY AIRFIELD,37.133,-76.6,+0004.0,62.900546109433762,49.063181952610492,1115.2990584776737,9975.7341397849468,331.1525
1975,VA,724010,RICHMOND INTERNATIONAL AIRPOR,37.512,-77.323,+0050.0,58.327432155657959,48.100325140809012,1018.234163466462,1011.7687820020481,331.1525
1975,VA,724020,WALLOPS ISL STN,37.937,-75.466,+0014.0,59.7961665527455,88.454572985494039,1018.4176387939546,1017.8155635300373,331.1525
1975,VA,724030,WASHINGTON DULLES INTERNATION,38.935,-77.447,+0088.4,53.865767409114184,44.344122503840239,1018.1237628008193,1006.2604518689196,331.1525
1975,VA,724035,QUANTICO MCAF,38.504,-77.305,+0003.1,57.727526881720429,47.873830005120325,1017.7953296210958,1017.3923739119305,331.1525
1975,VA,724037,DAVISON AAF AIRPORT,38.717,-77.183,+0022.3,56.608836405529956,45.050513952892985,1041.6319777265744,9951.5588709677413,331.1525
1975,VA,724050,RONALD REAGAN WASHINGTON NATL,38.847,-77.035,+0003.1,59.082937788018434,46.028745519713262,1018.1153904249871,1015.7269194828471,331.1525
1975,VA,724100,LYNCHBURG RGNL/PRESTON GLENN,37.321,-79.207,+0286.5,57.34543266769073,72.336867639528919,1018.2959658218126,984.49119559651808,331.1525
1975,VA,724110,ROANOKE REGIONAL/WOODRUM FIEL,37.317,-79.974,+0358.1,56.450596518177164,44.206735791090637,1018.3721915002559,976.2428667434715,331.1525
1975,VA,745980,LANGLEY AFB/HAMPTON,37.083,-76.35,+0006.0,60.1926113671275,47.551222478238607,1018.2089925755249,9951.5951612903227,331.1525
1975,VT,726120,NEWPORT,44.93,-72.2,+0233.0,43.531173311533891,512.26761007843947,1108.4374681765639,2010.10481727244,331.1525
1975,VT,726170,BURLINGTON INTERNATIONAL AIRP,44.468,-73.15,+0100.6,46.529617895545307,36.442128776241681,1016.7764919354839,1004.1145750128009,331.1525
1975,WA,727810,YAKIMA AIR TERMINAL/MCALSR FI,46.568,-120.543,+0324.3,50.017574244751664,34.04462621607783,1016.6664925755248,977.83260688684084,331.1525
1975,WA,727815,STAMPASS PASS FLTWO,47.277,-121.337,+1206.7,37.545724526369682,91.06406682027648,1017.5221415770609,878.65555811571937,331.1525
1975,WA,727846,WALLA WALLA REGIONAL ARPT,46.095,-118.287,+0355.4,53.833036994367632,37.25622887864823,1017.079314516129,973.47737199180756,331.1525
1975,WA,727850,SPOKANE INTERNATIONAL AIRPORT,47.622,-117.528,+0717.2,45.615852534562215,33.177444956477217,1015.7926497695852,931.30194316436257,331.1525
1975,WA,727855,FAIRCHILD AIR FORCE BASE,47.633,-117.65,+0750.1,46.238744239631338,33.929263952892988,1015.8005408346135,9975.5134408602134,331.1525
1975,WA,727890,OMAK AIRPORT,48.464,-119.517,+0396.2,46.397668728039974,32.907507018380208,1015.65135918216,970.59604668767759,331.1525
1975,WA,727920,OLYMPIA AIRPORT,46.973,-122.903,+0057.3,49.272231822836659,41.0732808499744,1016.9760515873016,1009.6660509472606,331.1525
1975,WA,727930,SEATTLE-TACOMA INTERNATIONAL,47.444,-122.314,+0112.8,50.694292754736296,41.175384024577568,1017.3920327700972,1000.8642620327702,331.1525
1975,WA,727970,QUILLAYUTE AIRPORT,47.938,-124.555,+0056.4,47.776622503840251,42.486308883768565,1016.8908346134153,1009.2906656426012,331.1525
1975,WA,727975,WHIDBEY ISLAND NAS,48.35,-122.667,+0014.3,48.178991295442906,41.145950460829489,1016.7832994111623,1015.6641154633896,331.1525
1975,WA,727976,BELLINGHAM INTL AIRPORT,48.794,-122.537,+0045.4,48.529098822324627,67.490541474654378,1016.8995596518178,1035.9696492575526,331.1525
1975,WA,742060,MCCHORD AFB AIRPORT,47.15,-122.483,+0098.2,49.868248847926267,42.531877880184332,1017.4466052227342,9975.7198924731165,331.1525
1975,WA,742070,GRAY AAF,47.133,-122.583,+0092.0,48.809857270865336,41.117555043522778,1017.6199718381977,9975.7212365591386,331.1525
1975,WI,726400,GENERAL MITCHELL INTERNATIONA,42.955,-87.904,+0204.2,47.342207501280079,39.116660266257043,1016.7471012544803,991.22083077316961,331.1525
1975,WI,726410,DANE CO REGIONAL-TRUAX FIELD,43.141,-89.345,+0264.0,47.132220302099327,37.664362519201234,1016.5695775729647,984.74690348182276,331.1525
1975,WI,726430,LA CROSSE MUNICIPAL AIRPORT,43.879,-91.253,+0198.7,46.036202636968767,37.332477598566314,1017.4338690476191,992.55331605222739,331.1525
1975,WI,726435,CHIPPEWA VALLEY RGNL ARPT,44.867,-91.488,+0269.8,44.032030209933438,35.269674219150026,1016.2586866359447,1007.3928840245777,331.1525
1975,WI,726450,AUSTIN STRAUBEL INTERNATIONAL,44.479,-88.137,+0209.4,44.473371095750124,35.425023681515611,1016.1624596774193,990.20003520225293,331.1525
1975,WI,726460,WAUSAU MUNICIPAL ARPT,44.929,-89.628,+0364.5,43.282204941116227,34.733120199692785,1016.2254653097798,972.22996415770626,331.1525
1975,WI,727410,PARK FALLS MUNI,45.955,-90.424,+0457.2,42.236355175160327,32.645326975102655,1040.2911463354344,959.67760563863817,331.1525
1975,WV,724120,RALEIGH COUNTY MEMORIAL AIRPO,37.784,-81.123,+0766.3,51.877086533538147,43.214941116231444,1018.5652156938045,929.84718894009222,331.1525
1975,WV,724140,YEAGER AIRPORT,38.379,-81.59,+0277.4,54.878726958525348,44.658355734767028,1018.3030171530978,983.97872759856637,331.1525
1975,WV,724170,ELKINS-RAND CO-J.RAND FIELD A,38.89,-79.855,+0597.7,50.978549027137738,42.409348438300057,1018.5777182539683,947.230634280594,331.1525
1975,WV,724176,MGTN RGNL-W L B HART FD AP,39.65,-79.921,+0378.0,53.107221582181268,658.07737263184856,1018.3513434459805,973.09815732206857,331.1525
1975,WV,724250,TRI-STATE/M.J.FERGUS,38.365,-82.555,+0251.2,56.125871735791094,46.07304211469534,1017.9302521761394,987.72067780337943,331.1525
1975,WY,725640,CHEYENNE AIRPORT,41.158,-104.807,+1863.2,44.247844342037887,22.773672555043522,1013.8857584485406,809.511182155658,331.1525
1975,WY,725690,NATRONA COUNTY INTERNATIONAL,42.898,-106.474,+1620.9,43.768774321556577,25.977740015360983,1014.8049430363544,836.08960765488985,331.1525
1975,WY,725740,ROCK SPRINGS ARPT,41.594,-109.053,+2055.9,41.815234895033278,24.277179339477726,1016.4407347670251,818.17053763440856,331.1525
1975,WY,725760,HUNT FIELD AIRPORT,42.815,-108.726,+1704.4,42.815544034818231,23.480675883256531,1015.2716052227343,827.83615143369184,331.1525
1975,WY,726630,MOORCROFT,44.267,-104.95,+1303.0,46.7197679829652,263.76735880998609,1333.2107111281168,7716.212908258788,331.1525
1975,WY,726660,SHERIDAN COUNTY AIRPORT,44.769,-106.969,+1202.4,43.296014464925747,29.152935227854584,1015.824708141321,877.50241551459283,331.1525
1975,WY,999999,ZUNI,71.583,174.1,-0068.9,48.211819627322313,810.323600495461,1510.87489489616,1702.3330254121586,331.1525
1975,AK,700635,GALBRAITH LAKE AIRPORT,68.483,-149.483,+0814.0,13.394668998641999,4274.1213862007171,9839.2232142857138,9999.9,331.1525
1975,AK,700636,PRUDHOE BAY,70.25,-148.333,+0014.0,6.1640869043205,4991.8534609442595,9999.9,9999.9,331.1525
1975,AK,700639,HAPPY VALLEY,69.167,-148.817,+0297.0,9.92044584370641,5783.0385712520083,7993.0066352075492,9999.9,331.1525
1975,AK,700867,FRANKLIN BLUFFS,69.717,-148.683,+0108.0,7.156111754862458,7093.1173859731471,9972.1287037037036,9999.9,331.1525
1975,AK,701748,PROSPECT CREEK AIRPORT,66.817,-150.65,+0335.0,20.570082053251404,2295.5232373271888,9849.9383333333335,9999.9,331.1525
1975,AK,701795,FIVE MILE CAMP,65.933,-149.833,+0155.0,21.313055464677525,1629.0601324783529,6340.1882134288644,9999.9,331.1525
1975,AK,701940,FORT YUKON AIRPORT,66.567,-145.267,+0135.6,21.713571428571434,232.91733406938042,9899.90111111111,9999.9,331.1525
1975,AK,702320,ANIAK AIRPORT,61.583,-159.533,+0026.0,29.880165274505604,940.95448756871542,9999.9,9999.9,331.1525
1975,AK,702495,HAYES RIVER AIRPORT,61.983,-152.08,+0305.1,31.77981800467337,23.766940760479251,9999.9,9999.9,331.1525
1975,AK,702616,OLD MAN,66.45,-150.583,+0389.0,20.071715727197844,900.18138214341366,9849.9266666666663,9999.9,331.1525
1975,AK,702700,FT. RICHARDSON/BRYANT AHP  AK,61.267,-149.65,+0118.3,34.3498089231557,9999.9,9999.9,9999.9,331.1525
1975,AK,702740,PALMER MUNICIPAL AIRPORT,61.596,-149.089,+0074.0,34.982816606929511,23.830069693349262,9999.9,9999.9,331.1525
1975,AK,702755,MCCARTHY AIRPORT,61.437,-142.904,+0466.7,26.876792361525169,18.328710972969407,9999.9,9999.9,331.1525
1975,AK,702770,SEWARD AIRPORT,60.128,-149.417,+0018.0,37.964262959725978,115.73012467556545,1035.0353892773276,9999.9,331.1525
1975,AK,702910,NORTHWAY AIRPORT,62.962,-141.988,+0522.1,22.88530604210386,13.8213673559776,1012.0001368149805,9999.9,331.1525
1975,AK,702915,SLANA AIRPORT,62.709,-143.981,+0730.0,27.6156355567944,80.203367451242485,9999.9,9999.9,331.1525
1975,AK,702960,M.K.(MUDHOLE) SMITH ARPT,60.489,-145.451,+0009.5,36.712156202364767,89.653825801939476,1008.9294513843522,9999.9,331.1525
1975,AK,703210,DILLINGHAM MUNI,59.05,-158.517,+0029.0,31.500865335381469,105.23072132616487,9999.9,9999.9,331.1525
1975,AK,703400,ILIAMNA AIRPORT,59.749,-154.909,+0043.6,32.6648641347529,24.71920332556456,1009.5271680394442,9999.9,331.1525
1975,AK,703406,PORT ALSWORTH AIRPORT,60.204,-154.316,+0085.0,33.752829029208335,26.86921116240082,9999.9,9999.9,331.1525
1975,AK,703431,MIDDLETON ISLAND AUT,59.433,-146.333,+0014.0,39.585931365538428,119.30122191765102,9999.9,9999.9,331.1525
1975,AK,703620,SKAGWAY AIRPORT,59.456,-135.324,+0006.1,39.479072876852861,87.187359290885723,1061.52624001025,9999.9,331.1525
1975,AK,703625,HAINES BOAT HARBOR,59.233,-135.433,+0010.0,39.597565864044363,62.744173533006489,9999.9,9999.9,331.1525
1975,AK,703675,SISTERS ISLAND,58.167,-135.25,+0011.0,41.649912918776941,144.91763802305098,9999.9,9999.9,331.1525
1975,AK,703710,SITKA ROCKY GUTIERREZ ARPT,57.048,-135.365,+0004.3,42.657811059907836,64.401817716333838,1010.7878923451101,9999.9,331.1525
1975,AK,703816,FUNTER BAY SEAPLANE,58.25,-134.9,+0000.0,40.422442137580617,130.67062784045763,9999.9,9999.9,331.1525
1975,AK,703817,ELFIN COVE SEAPLANE BASE,58.2,-136.344,+0006.1,42.288634006303965,226.39910182653603,9999.9,9999.9,331.1525
1975,AK,703830,ANGOON SEAPLANE BASE,57.499,-134.586,+0008.5,41.710570357139467,63.720928010586306,9999.9,9999.9,331.1525
1975,AK,703860,PETERSBURG,56.817,-132.937,+0032.6,40.011651611160232,90.813055272375635,9999.9,9999.9,331.1525
1975,AK,703870,WRANGELL AIRPORT,56.484,-132.37,+0017.1,43.315153852605185,231.40106997192646,9999.9,9999.9,331.1525
1975,AK,703950,KETCHIKAN INTL AIRPORT,55.35,-131.65,+0024.4,44.458734903861441,38.83045213376414,9999.9,9999.9,331.1525
1975,AL,722031,FOLSOM FLD,34.269,-86.85,+0295.0,74.893867127496165,66.157556323604709,1017.9938415258576,9999.9,331.1525
1975,AL,722265,MAXWELL AFB AIRPORT,32.383,-86.35,+0052.1,67.550136968766,54.68287570404506,1071.4418324372759,9999.9,331.1525
1975,AL,722266,CRAIG FLD,32.35,-86.983,+0051.0,64.887528801843317,54.438180363543268,1068.5241929083461,9999.9,331.1525
1975,AL,722267,TROY MUNICIPAL AIRPORT,31.867,-86.012,+0121.0,68.766378042882621,57.034238423348846,1224.5103069555244,9999.9,331.1525
1975,AL,722268,DOTHAN RGNL,31.317,-85.45,+0122.0,66.131689068100357,56.628725678443423,1018.0170020481312,9999.9,331.1525
1975,AL,722275,ANDALUSIA-OPP  MUNICIPAL AIRP,31.309,-86.394,+0094.5,61.075509970415872,134.70020011947432,9948.0307048984469,9999.9,331.1525
1975,AL,722286,TUSCALOOSA RGNL,33.217,-87.6,+0052.0,63.290277925479536,55.176971473866629,1018.4807097561936,9999.9,331.1525
1975,AL,722287,ANNISTON METROPOLITAN ARPT,33.587,-85.856,+0181.1,61.8509485407066,107.23002688172042,1017.9691173835125,9999.9,331.1525
1975,AL,723235,NORTH WEST ALABAMA REGIONAL A,34.744,-87.6,+0164.6,59.401905401945726,51.615730926779314,1018.3525742447515,9999.9,331.1525
1975,AR,723407,JONESBORO MUNICIPAL ARPT,35.833,-90.633,+0080.0,59.509455325140806,50.744811187916028,1017.3062269585254,9999.9,331.1525
1975,AR,723408,ARKANSAS INTL,35.967,-89.933,+0077.4,60.415669482846894,51.003170122887859,1016.9126849718382,9999.9,331.1525
1975,AR,723415,MEMORIAL FLD,34.467,-93.06,+0165.0,64.062391833077314,50.183792242703547,9999.9,9999.9,331.1525
1975,AR,723417,GRIDER FLD,34.18,-91.933,+0063.1,63.937530721966212,52.721975166410651,1017.97950140809,9999.9,331.1525
1975,AR,723418,TEXARKANA REGIONAL AIRPORT-WE,33.456,-93.988,+0110.0,62.662745378462844,110.42787565990432,4759.2985317460316,9999.9,331.1525
1975,AR,723419,S. AR RGNL AT GDWIN FLD AP,33.221,-92.814,+0076.8,62.842299738294372,53.758942652329743,1017.7927486203561,9999.9,331.1525
1975,AR,723446,BOONE CO,36.267,-93.157,+0422.1,56.953452380952371,47.551034946236562,1017.2323150281618,9999.9,331.1525
1975,AZ,722720,BISBEE DOUGLAS INTL ARPT,32.633,-108.167,+1659.9,54.744809400807689,73.135742710696377,9999.9,9999.9,331.1525
1975,AZ,722735,BISBEE DOUGLAS INTL,31.458,-109.606,+1250.0,60.961900281618028,30.008669354838702,1013.1707238863286,9999.9,331.1525
1975,AZ,723745,PAYSON AIRPORT,34.257,-111.339,+1572.2,55.68803814492631,61.860197118008813,9999.9,9999.9,331.1525
1975,AZ,723750,FLAGSTAFF PULLIAM AIRPORT,35.144,-111.666,+2135.0,44.501682667690737,23.072487839221711,1016.5157347670252,9999.9,331.1525
1975,AZ,747240,GILA BEND AF AUX AIRPORT,32.883,-112.717,+0269.0,73.65791432632966,37.635866634636649,9999.9,9999.9,331.1525
1975,CA,722865,ONTARIO,34.067,-117.65,+0303.9,61.208954173067077,46.595632360471079,1014.9959114183309,9999.9,331.1525
1975,CA,722867,BEAUMONT,33.933,-116.967,+0692.0,63.828753907618506,39.853893756568837,9999.9,9999.9,331.1525
1975,CA,722868,PALM SPRINGS INTL AIRPORT,33.833,-116.5,+0145.0,73.98370012094567,9999.9,9999.9,9999.9,331.1525
1975,CA,722880,BURBANK/GLENDALE,34.201,-118.35,+0236.2,62.057878904249868,46.711776113671277,9999.9,9999.9,331.1525
1975,CA,722886,VAN NUYS AIRPORT,34.21,-118.489,+0244.0,61.609345878136196,9999.9,9999.9,9999.9,331.1525
1975,CA,722907,GILLESPIE FLD,32.833,-116.967,+0118.0,60.008009472606247,46.9492089093702,9999.9,9999.9,331.1525
1975,CA,722908,EL TORO(USMC)                ,33.667,-117.733,+0117.0,57.924090501792115,43.732466077828981,1016.1140949820789,9999.9,331.1525
1975,CA,722927,MCCLELLAN-PALOMAR AIRPORT,33.128,-117.279,+0101.0,59.100613604488075,49.213787205859433,9999.9,9999.9,331.1525
1975,CA,722977,JOHN WAYNE ARPT ORA,33.68,-117.866,+0017.0,61.87567332309267,9999.9,9999.9,9999.9,331.1525
1975,CA,722978,HUNTINGTON BEACH,33.65,-118.0,+0035.0,60.286045186891961,46.029288914490515,1015.5694982078853,9999.9,331.1525
1975,CA,723965,PASO ROBLES MUNICIPAL ARPT,35.67,-120.628,+0246.9,56.131779953917039,41.85163914490527,1016.4443977214542,9999.9,331.1525
1975,CA,724838,YUBA COUNTRY AIRPORT,39.102,-121.567,+0019.0,60.168929851510491,46.375966461853565,1016.0714919354838,9999.9,331.1525
1975,CA,724839,SACRAMENTO INTL AIRPORT,38.696,-121.583,+0008.0,58.713209805427546,45.318870327700978,9999.9,9999.9,331.1525
1975,CA,724915,MONTEREY PENINSULA AIRPORT,36.588,-121.833,+0080.0,55.377844342037889,47.419617255504349,9999.9,9999.9,331.1525
1975,CA,724916,MARINA MUNI,36.683,-121.762,+0040.8,56.392272621156565,100.53188223540559,3502.8246922506487,9999.9,331.1525
1975,CA,724917,SALINAS MUNI,36.664,-121.608,+0023.5,54.117762416794669,42.323630312339994,1017.7312128776241,9999.9,331.1525
1975,CA,724925,CROWS LANDING,37.4,-121.133,+0056.7,65.183189668518622,84.8680388130388,1016.9667354648276,9999.9,331.1525
1975,CA,724926,MDSTO CTY-CO H SHAM FD APT,37.624,-120.951,+0022.3,61.608517157511869,46.017082759503509,9999.9,9999.9,331.1525
1975,CA,724945,N Y. MINETA SN JO INTL APT,37.359,-121.924,+0015.5,58.271743736426714,74.126720628740912,9999.9,9999.9,331.1525
1975,CA,724956,HAMILTON AAF,38.067,-122.5,+0001.0,58.49689644137225,45.321041026625707,1323.179321236559,9999.9,331.1525
1975,CA,724957,SONOMA COUNTY AIRPORT,38.517,-122.81,+0038.0,55.839120872219027,178.66160784434896,9999.9,9999.9,331.1525
1975,CA,724970,CHICO CALIFORNIA MAP,39.783,-121.85,+0069.0,62.594689381499727,72.286144631601246,9999.9,9999.9,331.1525
1975,CA,725847,LAKE TAHOE AIRPORT,38.898,-119.995,+1924.5,43.766198796722989,29.0992927547363,9999.9,9999.9,331.1525
1975,CA,725848,SHELTER COVE,40.02,-124.07,+0021.0,52.967433744696713,191.27099870796275,1017.7177371738169,9999.9,331.1525
1975,CA,725905,UKIAH MUNICIPAL AIRPORT,39.126,-123.2,+0187.0,56.621773553507424,43.120729646697384,1017.3727662570406,9999.9,331.1525
1975,CA,725915,REDDING MUNICIPAL ARPT,40.518,-122.299,+0153.0,63.672385918216015,46.003767082472592,9999.9,9999.9,331.1525
1975,CA,725946,JACK MCNAMARA FIELD ARPT,41.78,-124.233,+0017.4,51.3087192780338,45.7084811827957,1018.6031144393239,9999.9,331.1525
1975,CA,725950,ALTURAS,41.5,-120.533,+1341.0,48.61162834723082,124.69635433600885,9894.3776144688636,9999.9,331.1525
1975,CA,725955,SISKIYOU COUNTY AIRPORT,41.783,-122.467,+0808.0,54.07204365079366,35.390067204301076,1017.0211968766001,9999.9,331.1525
1975,CA,747185,IMPERIAL COUNTY AIRPORT,32.834,-115.579,-0017.7,69.625039042498727,40.633706477214538,1012.6480984383,9999.9,331.1525
1975,CA,747186,CAMPO,32.633,-116.467,+0807.0,63.236559190943247,71.823694843803537,9999.9,9999.9,331.1525
1975,CA,747187,DESERT RESORTS RGNL ARPT,33.627,-116.159,-0036.0,70.373330133128533,38.999419482846911,1012.4506035586277,9999.9,331.1525
1975,CO,722101,WOLF CREEK PASS AWOS-3 AIRPOR,37.45,-106.8,+3593.9,74.731375448028686,65.314214669738874,1017.8638735279058,9999.9,331.1525
1975,CO,724625,DURANGO-LA PLATA CO,37.143,-107.76,+2038.0,47.363846778607623,33.038313514133868,9999.9,9999.9,331.1525
1975,CO,724630,LAMAR,38.083,-102.617,+1103.0,53.866697984533076,36.083646291293675,1013.6832807616929,9999.9,331.1525
1975,CO,724635,LA JUNTA MUNICIPAL AIRPORT,38.049,-103.513,+1278.3,53.992976830517151,30.200114567332307,1013.062039170507,9999.9,331.1525
1975,CO,724645,PERRY STOKES AIRPORT,37.262,-104.338,+1749.9,50.865695084485409,29.148913210445468,1013.2606451612903,9999.9,331.1525
1975,CO,724665,LIMON MUNICIPAL AIRPORT,39.275,-103.666,+1638.0,46.689801940427635,26.400310574359516,1014.0905629270617,9999.9,331.1525
1975,CO,724670,DENVER INTL AP,39.833,-104.658,+1655.4,29.877329329521537,15.897865445610737,3733.3679309431363,9999.9,331.1525
1975,CO,724676,ASPEN-PITKIN COUNTY ARPT,39.23,-106.869,+2384.0,45.518344214029689,22.458705837173579,9999.9,9999.9,331.1525
1975,CO,724680,FORT CARSON/BUTTS,38.7,-104.757,+1789.0,53.022345110087045,27.349110983102918,1163.4788632872503,9999.9,331.1525
1975,CO,724685,SALIDA/ALEXANDER,38.533,-106.05,+2282.0,46.082970721035238,52.965137707120469,1014.8933050170383,9999.9,331.1525
1975,CO,724697,FORT COLLINS DOWNTOWN,40.588,-105.042,+1505.4,48.067037338665536,29.077615008739869,9999.9,9999.9,331.1525
1975,CO,724698,COLORADO PLAINS RGNL ARPT,40.183,-103.217,+1437.0,47.886457373271895,57.84313812083974,1014.5348713517665,9999.9,331.1525
1975,CO,724766,MONTROSE,38.5,-107.883,+1752.0,39.605959778706222,27.040273384659002,1017.9264508395083,9999.9,331.1525
1975,CO,724767,CORTEZ MUNICIPAL AIRPORT,37.307,-108.626,+1804.0,52.113420158200469,32.645812207077043,9999.9,9999.9,331.1525
1975,CO,725716,RIFLE AVIATION WEATHER REPORT,39.53,-107.8,+1622.0,43.818446799599,29.00666240953597,9999.9,9999.9,331.1525
1975,CT,725045,TWEED-NEW HAVEN AIRPORT,41.264,-72.883,+0004.0,53.452744120451293,43.319451308332013,9999.9,9999.9,331.1525
1975,FL,722040,MELBOURNE REGIONAL,28.101,-80.644,+0011.0,75.307179339477742,63.961136712749621,9999.9,9999.9,331.1525
1975,FL,722057,ORLANDO SANFORD AIRPORT,28.78,-81.233,+0017.0,76.25212877624169,65.136737711213513,9999.9,9999.9,331.1525
1975,FL,722068,JACKSONVILLE/CRAIG,30.336,-81.515,+0012.5,68.668182283666155,60.944201228878647,9999.9,9999.9,331.1525
1975,FL,722115,SARASOTA/BRADENTON INTL AP,27.401,-82.55,+0009.0,74.344948156682022,64.058904889912952,9999.9,9999.9,331.1525
1975,FL,722116,ST PETERSBURG CLEAR,27.911,-82.683,+0003.4,75.3717601126472,65.377046850998468,9999.9,9999.9,331.1525
1975,FL,722146,GAINESVILLE RGNL,29.692,-82.276,+0050.3,69.677288146441384,61.145873015873015,1018.3000032002046,9999.9,331.1525
1975,FL,722215,BOB SIKES AIRPORT,30.78,-86.523,+0057.9,65.731899641577073,56.519249231950852,1018.0460035842294,9999.9,331.1525
1975,FL,722246,EGLIN AF AUX NR 3 D          ,30.65,-86.517,+0059.4,71.340690003582566,59.00340474496528,9999.9,9999.9,331.1525
1975,FL,747770,HURLBURT FIELD AIRPORT,30.417,-86.683,+0011.6,68.3235240655402,59.786842037890423,1042.3675460829493,9999.9,331.1525
1975,FL,747960,AVON PARK GUNNERY RANGE,27.65,-81.33,+0020.0,75.9071886140213,66.124903679969322,2801.0652679635859,9999.9,331.1525
1975,GA,722135,ALMA/BACON CO.               ,31.536,-82.507,+0062.8,68.238248847926272,84.534626216077825,1018.1638127240144,9999.9,331.1525
1975,GA,722137,MALCOLM MC KINNON AIRPORT,31.152,-81.391,+0004.9,68.397993471582183,87.847638248847915,1018.8600249615974,9999.9,331.1525
1975,GA,722160,SW GEORGIA REGIONAL ARPT,31.536,-84.183,+0059.0,65.248431259600622,56.912591525857657,9999.9,9999.9,331.1525
1975,GA,722166,VALDOSTA RGNL,30.783,-83.267,+0062.0,68.033477342549915,87.128575908858167,9999.9,9999.9,331.1525
1975,GA,722195,FULTON CO-BROWN FLD ARPT,33.779,-84.517,+0256.0,61.106462493599594,52.608542626728109,9999.9,9999.9,331.1525
1975,GA,722250,LAWSON AAF AIRPORT,32.35,-85.0,+0071.0,64.5633339733743,54.656372887864819,1018.3077822580645,9999.9,331.1525
1975,HI,911860,MOLOKAI AIRPORT,21.155,-157.096,+0137.0,76.063894118535089,99.900963924498228,1410.0217223517805,9999.9,331.1525
1975,HI,911905,LANAI AIRPORT,20.79,-156.949,+0399.0,71.077678680149319,61.914754554493818,9999.9,9999.9,331.1525
1975,IA,725455,SOUTHEAST IOWA RGNL,40.783,-91.125,+0214.0,50.770695724526369,42.491041346646192,9999.9,9999.9,331.1525
1975,IA,725486,BOONE MUNICIPAL AIRPORT,42.05,-93.848,+0354.0,49.141259612875757,68.262819010148419,9999.9,9999.9,331.1525
1975,ID,725785,IDAHO FALLS REGIONAL ARPT,43.519,-112.064,+1442.6,41.803760240655393,27.615999103942652,1017.8128289810546,9999.9,331.1525
1975,ID,725786,MALAD CITY AIRPORT,42.189,-112.249,+1384.7,45.565449308755753,30.104657578085,1017.9099231950845,9999.9,331.1525
1975,ID,725787,STREVELL,42.017,-113.25,+1612.0,44.183859606442937,32.222632500215838,9999.9,9999.9,331.1525
1975,ID,725860,GOODING MUNICIPAL,42.917,-114.767,+1137.0,50.6129845110087,61.77678443420379,1016.7314727342549,9999.9,331.1525
1975,ID,725865,FRIEDMAN MEMORIAL AIRPORT,43.5,-114.3,+1622.0,43.315832669745717,27.581841654722087,9999.9,9999.9,331.1525
1975,ID,725866,JSIN FLD-MAGIC VLY RGN APT,42.483,-114.483,+1265.2,49.227711853558631,32.876879800307222,9999.9,9999.9,331.1525
1975,ID,725867,BURLEY MUNICIPAL AIRPORT,42.542,-113.766,+1266.1,46.098934331797238,32.277065412186381,1016.2806624423962,9999.9,331.1525
1975,IL,722075,DE KALB TAYLOR MUNI ARPT,41.932,-88.708,+0279.0,69.354205100889018,197.53850650001183,4924.8922141511339,9999.9,331.1525
1975,IL,722076,VERMILION COUNTY AIRPORT,40.2,-87.596,+0212.0,69.00168013597316,57.932803123399893,1280.7032390339648,9999.9,331.1525
1975,IL,724335,MOUNT VERNON AIRPORT,38.323,-88.858,+0146.3,58.357934647288872,48.858796848258756,9999.9,9999.9,331.1525
1975,IL,724336,SOUTHERN ILLINOIS AIRPORT,37.78,-89.25,+0125.0,60.31818683997308,109.65210240213993,9999.9,9999.9,331.1525
1975,IL,725305,DUPAGE AIRPORT,41.914,-88.246,+0231.0,49.554967784604884,870.88495733060245,9999.9,9999.9,331.1525
1975,IL,725316,DECATUR AIRPORT,39.834,-88.866,+0208.0,52.834538530465949,43.893696236559137,1017.7308365335381,9999.9,331.1525
1975,IL,725317,COLES COUNTY MEMO AIRPORT,39.483,-88.28,+0220.0,56.470436187916036,47.456767473118276,9999.9,9999.9,331.1525
1975,IL,725346,CHICAGO/MEIGS,41.867,-87.6,+0181.0,51.983432539682532,42.694235151049668,9999.9,9999.9,331.1525
1975,IN,724386,PURDUE UNIVERSITY AIRPORT,40.412,-86.937,+0182.6,53.413308706469849,44.825027719168659,1255.3757517391459,9999.9,331.1525
1975,KS,724506,HUTCHINSON MUNICIPAL ARPT,38.067,-97.85,+0470.3,55.797586405529948,43.746963645673318,9999.9,9999.9,331.1525
1975,KS,724507,CHANUTE MARTIN JOHNSON APT,37.67,-95.484,+0300.2,55.717422555043527,46.057917946748596,1016.0431246799795,9999.9,331.1525
1975,KS,724515,GARDEN CITY RGNL,37.927,-100.717,+0881.0,54.625730286738353,38.119528289810546,1014.4990706605222,9999.9,331.1525
1975,KS,724516,LIBERAL MUNICIPAL AIRPORT,37.05,-100.95,+0879.0,61.087090895106442,41.350267219467604,9999.9,9999.9,331.1525
1975,KS,724555,MANHATTAN RGNL,39.135,-96.667,+0322.0,56.43660138248849,43.52661802355351,9999.9,9999.9,331.1525
1975,KS,724556,EMPORIA MUNICIPAL AIRPORT,38.332,-96.191,+0368.0,54.221271761392721,45.474945596518182,1016.5391679467485,9999.9,331.1525
1975,KS,724655,HILL CITY MUNICIPAL ARPT,39.376,-99.83,+0666.9,53.71354454685099,38.334854070660512,1015.1551606502816,9999.9,331.1525
1975,KY,724235,BOWMAN FLD,38.228,-85.65,+0166.0,57.197375832053247,46.60699884792627,9999.9,9999.9,331.1525
1975,KY,724236,JACKSON CARROLL ARPT,37.591,-83.314,+0413.6,56.170213886485676,45.598189591413544,1069.1361382159876,9999.9,331.1525
1975,KY,746715,PADUCAH BARKLEY FIELD,37.056,-88.774,+0125.9,57.800364823348694,74.8512346390169,1017.4602476958526,9999.9,331.1525
1975,KY,746716,BOW GRN-WARREN CO. RGNL AP,36.965,-86.424,+0160.9,57.988016513056834,48.326216077828988,1018.1902771377368,9999.9,331.1525
1975,LA,722390,POLK ARMY AIRFIELD,31.05,-93.033,+0110.0,68.126386040859728,57.468577694235591,4058.1503465102155,9999.9,331.1525
1975,LA,722486,MONROE REGIONAL AIRPORT,32.516,-92.041,+0024.1,63.748766001024059,55.380711085509468,1016.9783646953405,9999.9,331.1525
1975,LA,747550,CLAIBORNE RANGE  LA. (AFS)   ,31.133,-92.567,+0067.0,69.684883104225207,59.7142096086175,8443.19398765221,9999.9,331.1525
1975,MA,725065,NEW BEDFORD RGNL AIRPORT,41.676,-70.95,+0024.4,52.398527265745,41.524531205552712,9999.9,9999.9,331.1525
1975,MA,725066,MARTHAS VINEYARD AIRPORT,41.4,-70.615,+0020.7,53.101400729646691,44.418687275985654,9999.9,9999.9,331.1525
1975,MA,744905,FORT DEVENS/AYER,42.567,-71.6,+0082.0,53.247009410582827,526.15541538979141,1612.8728668315646,9999.9,331.1525
1975,MA,744915,BARNES MUNICIPAL AIRPORT,42.158,-72.716,+0083.0,51.158598950332824,65.284631336405511,9999.9,9999.9,331.1525
1975,MD,724045,SALISBURY OCEAN CIT,38.341,-75.51,+0018.3,56.966949564772143,47.659862391193045,1018.6542146697387,9999.9,331.1525
1975,MD,724067,MARTIN STATE AIRPORT,39.333,-76.4,+0007.0,58.359217650103517,45.063551814731163,5158.5701378458489,9999.9,331.1525
1975,ME,726070,BANGOR INTL,44.8,-68.817,+0060.0,44.846587301587306,36.331447132616489,1016.0607366871481,9999.9,331.1525
1975,ME,727031,HOULTON INTL ARPT &          ,46.133,-67.783,+0150.0,40.038630952380956,31.186913082437279,1014.734400281618,9999.9,331.1525
1975,MI,690110,SELFRIDGE ANGB/TRAIN,42.608,-82.835,+0177.0,48.2654347041847,25.140149806334019,9964.21865079365,9999.9,331.1525
1975,MI,725375,DETROIT CITY AIRPORT,42.409,-83.01,+0190.8,52.070186891961086,40.017869303635429,9999.9,9999.9,331.1525
1975,MI,725376,WILLOW RUN AIRPORT,42.233,-83.517,+0236.8,48.858518305171536,38.245691884280596,9999.9,9999.9,331.1525
1975,MI,725395,JAKSON CO-RYNOLDS FLD ARPT,42.267,-84.467,+0304.2,48.711669226830523,70.48000320020482,1017.1246697388633,9999.9,331.1525
1975,MI,725396,W K KELLOGG AIRPORT,42.308,-85.25,+0290.0,50.115094086021507,40.0678065796211,9999.9,9999.9,331.1525
1975,MI,726355,SW MICHIGAN REGIONAL ARPT,42.133,-86.428,+0196.0,51.507709293394775,43.279873911930366,9999.9,9999.9,331.1525
1975,MI,726357,KLMAZO/BTL CREEK INTL ARPT,42.235,-85.55,+0266.0,49.78142409114183,39.523956733230918,9999.9,9999.9,331.1525
1975,MI,726375,OAKLAND CO. INTNL AIRPORT,42.667,-83.417,+0299.0,48.666233614951352,41.162513421166643,9999.9,9999.9,331.1525
1975,MI,726385,MANISTEE CO-BLACKER ARPT,44.272,-86.247,+0189.3,50.683089735398852,42.198686489198415,9999.9,9999.9,331.1525
1975,MI,726482,ESCANABA (AWOS)              ,45.717,-87.1,+0186.0,45.091252560163838,36.953036354326677,9999.9,9999.9,331.1525
1975,MI,726487,MEONE-MARINETTE TWIN CO AP,45.127,-87.633,+0191.0,46.504729262672811,69.075361623143877,9999.9,9999.9,331.1525
1975,MI,727345,SAULT STE MARIE,46.483,-84.357,+0220.7,42.118117639528933,32.229722222222222,1015.2530715565797,9999.9,331.1525
1975,MI,727347,PELLSTON REGIONAL ARPT OF EMM,45.564,-84.793,+0214.9,43.836570020481311,37.108723758320529,1015.7699398361494,9999.9,331.1525
1975,MI,727436,ANTRIM COUNTY AIRPORT,44.986,-85.2,+0190.0,40.566958673047381,33.412958712434516,1015.8314509728623,9999.9,331.1525
1975,MI,727437,FORD AIRPORT,45.818,-88.114,+0360.0,45.606929767643066,151.74896785670143,9999.9,9999.9,331.1525
1975,MI,727445,GOGEBIC-IRON COUNTY ARPT,46.533,-90.131,+0375.0,43.662046850998458,33.212558883768558,9999.9,9999.9,331.1525
1975,MN,726547,GLENWOOD MUNICIPAL AIRPORT,45.65,-95.317,+0425.0,47.389992769523744,34.617869683686749,9999.9,9999.9,331.1525
1975,MN,726555,BRAINERD LAKES RGNL ARPT,46.405,-94.131,+0374.0,43.212936993484824,59.992662945600912,9999.9,9999.9,331.1525
1975,MN,726556,REDWOOD FALLS MUNI AIRPORT,44.55,-95.08,+0312.0,46.53443164362519,36.639714541730676,1015.8067741935484,9999.9,331.1525
1975,MN,726557,CHANDLER FIELD AIRPORT,45.868,-95.394,+0431.6,41.301654505888379,34.127371351766513,1016.1993036354326,9999.9,331.1525
1975,MN,726585,MANKATO MUNICIPAL AIRPORT,44.223,-93.917,+0311.2,47.0756183678514,65.774907767890255,9999.9,9999.9,331.1525
1975,MN,726586,FAIRMONT MUNICIPAL AIRPORT,43.65,-94.417,+0354.0,46.9299980798771,38.764117383512541,9999.9,9999.9,331.1525
